     2.11           OBSERVATION DATA    G (GPS)             RINEX VERSION / TYPE
teqc  2013Mar15                         20180107 21:00:04UTCPGM / RUN BY / DATE
Linux 2.4.21-27.ELsmp|Opteron|gcc -static|Linux x86_64|=+   COMMENT
teqc  2013Mar15                         20180107 21:00:03UTCCOMMENT
     2.11           OBSERVATION DATA    M (MIXED)           COMMENT
teqc  2017Jul3      GNSS Operator       20180106 00:19:18UTCCOMMENT
Solaris x86 5.10|AMD64|cc SC5.8 -xarch=amd64|=+|=+          COMMENT
teqc  2017Jul3      GNSS Operator       20180106 00:19:17UTCCOMMENT
BIT 2 OF LLI FLAGS DATA COLLECTED UNDER A/S CONDITION       COMMENT
SCIGN short dome on antenna;                                COMMENT
CONTACT gps@pgc.nrcan.gc.ca FOR ADDITIONAL INFORMATION      COMMENT
This data is subject to the Open Government Licence - CanadaCOMMENT
http://open.canada.ca/en/open-government-licence-canada     COMMENT
 SNR is mapped to RINEX snr flag value [0-9]                COMMENT
  L1 & L2: min(max(int(snr_dBHz/6), 0), 9)                  COMMENT
bamf  WCDA-ACP  M027005   Bamfield BC Canada                MARKER NAME
40190M001                                                   MARKER NUMBER
PGC-WCDA            GEOL. SURV. CANADA                      OBSERVER / AGENCY
4635120789          TRIMBLE NETRS       1.3-2               REC # / TYPE / VERS
0220366143          TRM29659.00     SCIS                    ANT # / TYPE
 -2420720.5200 -3439857.2600  4778532.6700                  APPROX POSITION XYZ
        0.0000        0.0000        0.0000                  ANTENNA: DELTA H/E/N
     1     1                                                WAVELENGTH FACT L1/2
     8    C1    C2    P1    P2    L1    L2    S1    S2      # / TYPES OF OBSERV
teqc windowed: start @ 2018 Jan  6 00:00:00.000             COMMENT
teqc windowed:  end  @ 2018 Jan  6 00:14:59.000             COMMENT
    18                                                      LEAP SECONDS
teqc edited: all GLONASS satellites excluded                COMMENT
  2018     1     6     0     0    0.0000000     GPS         TIME OF FIRST OBS
                                                            END OF HEADER
 18  1  6  0  0  0.0000000  0  6G07G09G30G23G16G05
  21311796.242    21311783.426                    21311783.422   -16238786.363 8
 -14782497.998 8        52.200          48.800
  20025167.242    20025156.711                    20025157.293   -25728907.627 8
 -20041883.150 8        51.500          53.800
  23088672.125    23088664.816                    23088664.520    -8116357.115 7
  -7348465.895 7        42.500          44.500
  21073187.867                                    21073174.051   -22779593.135 7
 -16324428.70446        47.500          37.800
  21780297.164                                    21780286.277    -5672290.375 5
  -4219537.46642        33.000          14.800
  24560184.531    24560174.586                    24560173.527    -2354094.380 6
  -1825006.590 6        36.300          39.000
 18  1  6  0  0  1.0000000  0  6G07G09G30G23G16G05
  21311441.898    21311429.492                    21311429.488   -16240647.424 8
 -14783948.173 8        52.100          48.800
  20025136.477    20025124.832                    20025125.238   -25729071.470 8
 -20042010.812 8        51.100          53.700
  23088107.891    23088099.762                    23088099.582    -8119325.392 7
  -7350778.839 7        42.700          44.500
  21073522.797                                    21073509.039   -22777832.216 7
 -16323056.56146        47.900          38.200
  21780695.641                                    21780685.105    -5670194.726 5
  -4217904.48842        32.000          15.600
  24559619.078    24559609.953                    24559608.895    -2357063.388 6
  -1827320.100 6        36.700          39.000
 18  1  6  0  0  2.0000000  0  6G07G09G30G23G16G05
  21311087.781    21311075.375                    21311075.430   -16242508.437 8
 -14785398.310 8        52.200          48.800
  20025104.008    20025093.887                    20025094.410   -25729235.088 8
 -20042138.309 8        51.300          53.700
  23087542.570    23087534.852                    23087534.672    -8122293.733 7
  -7353091.831 7        42.300          44.600
  21073857.914                                    21073844.449   -22776071.126 8
 -16321684.28446        48.000          38.100
  21781094.117                                    21781084.109    -5668098.749 5
  -4216271.26242        33.100          16.300
  24559055.320    24559044.027                    24559043.438    -2360032.306 5
  -1829633.542 6        34.900          38.800
 18  1  6  0  0  3.0000000  0  6G07G09G30G23G16G05
  21310733.563    21310720.863                    21310721.270   -16244368.667 8
 -14786847.836 8        52.000          48.600
  20025073.078    20025063.602                    20025063.891   -25729397.708 8
 -20042265.026 8        51.700          53.700
  23086977.242    23086970.168                    23086970.105    -8125261.416 7
  -7355404.311 7        42.200          44.600
  21074193.672                                    21074179.621   -22774309.141 8
 -16320311.30246        48.300          38.100
  21781493.789                                    21781483.078    -5666001.679 5
  -4214637.19042        32.200          16.300
  24558489.094    24558479.500                    24558479.086    -2363000.420 5
  -1831946.354 6        34.200          39.100
 18  1  6  0  0  4.0000000  0  6G07G09G30G23G16G05
  21310379.758    21310367.234                    21310367.465   -16246228.827 8
 -14788297.311 8        52.500          48.800
  20025042.898    20025033.246                    20025033.535   -25729560.075 8
 -20042391.544 8        52.100          53.700
  23086412.508    23086405.668                    23086405.254    -8128229.126 6
  -7357716.805 7        41.800          44.700
  21074528.867                                    21074514.816   -22772546.945 8
 -16318938.16446        48.600          38.200
  21781892.945                                    21781882.352    -5663904.295 5
  -4213002.85242        33.300          16.900
  24557924.570    24557914.391                    24557913.859    -2365968.302 5
  -1834258.985 6        33.600          38.700
 18  1  6  0  0  5.0000000  0  6G07G09G30G23G16G05
  21310025.883    21310013.594                    21310013.590   -16248088.655 8
 -14789746.529 8        52.300          48.500
  20025011.758    20025000.582                    20025000.813   -25729721.895 8
 -20042517.641 8        51.100          53.800
  23085848.266    23085840.898                    23085840.602    -8131196.611 6
  -7360029.125 7        41.700          44.500
  21074864.570                                    21074850.520   -22770784.293 7
 -16317564.66746        47.300          38.300
  21782292.125                                    21782281.707    -5661806.287 5
  -4211368.07042        33.700          16.900
  24557359.836    24557350.301                    24557349.242    -2368935.943 5
  -1836571.430 6        34.700          38.700
 18  1  6  0  0  6.0000000  0  6G07G09G30G23G16G05
  21309672.023    21309659.969                    21309659.965   -16249948.229 8
 -14791195.549 8        52.100          48.800
  20024980.711    20024970.180                    20024970.527   -25729883.266 8
 -20042643.380 8        51.100          53.900
  23085283.633    23085275.855                    23085275.910    -8134163.943 6
  -7362341.329 7        41.100          44.300
  21075200.078                                    21075185.910   -22769021.245 7
 -16316190.86646        47.600          38.000
  21782691.500                                    21782680.906    -5659707.712 5
  -4209732.80542        33.200          16.900
  24556795.555    24556785.434                    24556784.434    -2371903.154 5
  -1838883.532 6        35.200          38.900
 18  1  6  0  0  7.0000000  0  6G07G09G30G23G16G05
  21309318.359    21309306.070                    21309305.949   -16251807.561 8
 -14792644.374 8        51.800          48.900
  20024950.258    20024940.430                    20024940.719   -25730044.219 8
 -20042768.798 8        51.500          53.900
  23084718.961    23084710.715                    23084710.945    -8137131.201 6
  -7364653.486 7        41.100          43.800
  21075535.648                                    21075521.656   -22767257.851 8
 -16314816.79246        48.000          38.200
  21783091.047                                    21783080.336    -5657608.665 5
  -4208097.18842        33.500          17.400
  24556230.578    24556221.219                    24556220.160    -2374870.162 5
  -1841195.482 6        35.900          39.200
 18  1  6  0  0  8.0000000  0  6G07G09G30G23G16G05
  21308964.227    21308952.465                    21308952.344   -16253666.446 8
 -14794092.862 8        51.600          49.000
  20024919.750    20024909.277                    20024909.566   -25730204.514 8
 -20042893.707 8        51.700          53.900
  23084154.188    23084145.883                    23084146.465    -8140098.078 6
  -7366965.340 7        41.100          43.400
  21075871.133                                    21075857.023   -22765493.868 7
 -16313442.25646        47.800          38.000
  21783490.289                                    21783480.281    -5655508.808 5
  -4206460.91742        33.300          17.400
  24555666.281    24555656.688                    24555655.453    -2377836.637 5
  -1843507.020 6        35.500          39.100
 18  1  6  0  0  9.0000000  0  6G07G09G30G23G16G05
  21308610.875    21308598.996                    21308598.582   -16255525.068 8
 -14795541.134 8        51.700          48.800
  20024889.477    20024879.355                    20024879.645   -25730364.354 8
 -20043018.253 9        51.400          54.000
  23083589.688    23083581.090                    23083581.906    -8143064.833 6
  -7369277.105 7        41.400          43.200
  21076207.016                                    21076192.730   -22763729.509 8
 -16312067.42746        48.200          37.800
  21783890.125                                    21783879.648    -5653408.472 5
  -4204824.28342        33.000          16.900
  24555102.563    24555092.617                    24555091.324    -2380802.794 6
  -1845818.301 6        36.300          39.200
 18  1  6  0  0 10.0000000  0  6G07G09G30G23G16G05
  21308256.961    21308244.906                    21308244.785   -16257383.500 8
 -14796989.267 8        51.500          48.700
  20024858.680    20024848.441                    20024848.555   -25730523.806 8
 -20043142.500 9        51.500          54.100
  23083025.711    23083016.820                    23083017.461    -8146031.496 6
  -7371588.793 7        41.700          43.500
  21076542.977                                    21076528.809   -22761964.820 8
 -16310692.34946        48.300          38.000
  21784290.617                                    21784279.438    -5651307.619 5
  -4203187.26842        33.600          16.900
  24554538.461    24554528.223                    24554526.813    -2383768.711 6
  -1848129.407 6        37.000          39.400
 18  1  6  0  0 11.0000000  0  6G07G09G30G23G16G05
  21307903.234    21307891.238                    21307891.234   -16259241.339 8
 -14798436.940 8        51.400          48.600
  20024828.383    20024819.082                    20024819.254   -25730682.481 8
 -20043266.142 9        50.900          54.000
  23082460.477    23082452.289                    23082452.754    -8148997.679 6
  -7373900.111 7        41.800          43.300
  21076879.117                                    21076864.539   -22760199.421 8
 -16309316.70946        48.100          37.800
  21784690.930                                    21784679.457    -5649205.946 5
  -4201549.60542        32.500          17.400
  24553973.969    24553963.613                    24553962.438    -2386734.015 6
  -1850440.029 6        36.900          39.400
 18  1  6  0  0 12.0000000  0  6G07G09G30G23G16G05
  21307550.055    21307538.176                    21307538.055   -16261099.133 8
 -14799884.567 8        51.800          48.700
  20024798.773    20024787.949                    20024787.945   -25730840.881 8
 -20043389.569 9        51.000          54.000
  23081896.352    23081888.047                    23081888.629    -8151963.961 7
  -7376211.492 7        42.000          43.500
  21077214.375                                    21077200.500   -22758433.839 8
 -16307940.93746        48.200          37.400
  21785090.469                                    21785079.289    -5647103.861 5
  -4199911.65342        32.400          16.900
  24553409.828    24553399.531                    24553398.473    -2389699.231 6
  -1852750.578 6        36.600          39.600
 18  1  6  0  0 13.0000000  0  6G07G09G30G23G16G05
  21307196.531    21307184.242                    21307184.355   -16262956.556 8
 -14801331.907 8        51.900          48.600
  20024768.688    20024758.625                    20024758.680   -25730998.745 8
 -20043512.581 8        51.400          53.900
  23081331.305    23081323.352                    23081323.582    -8154929.966 6
  -7378522.660 7        41.800          43.400
  21077550.891                                    21077536.840   -22756667.761 8
 -16306564.77346        48.700          37.500
  21785490.656                                    21785479.242    -5645001.147 5
  -4198273.16942        32.000          16.300
  24552846.211    24552835.270                    24552834.152    -2392663.966 6
  -1855060.750 6        36.500          39.800
 18  1  6  0  0 14.0000000  0  6G07G09G30G23G16G05
  21306843.109    21306830.645                    21306830.699   -16264813.756 8
 -14802779.080 8        52.500          48.500
  20024738.539    20024728.828                    20024728.883   -25731156.167 8
 -20043635.249 9        51.700          54.100
  23080767.016    23080759.473                    23080759.645    -8157895.858 6
  -7380833.739 7        41.300          43.200
  21077887.133                                    21077872.672   -22754901.336 8
 -16305188.33246        48.100          37.500
  21785890.719                                    21785879.598    -5642897.944 5
  -4196634.30242        31.900          15.600
  24552281.766    24552271.645                    24552270.117    -2395628.460 6
  -1857370.751 6        37.100          39.700
 18  1  6  0  0 15.0000000  0  6G07G09G30G23G16G05
  21306489.664    21306477.551                    21306477.781   -16266670.416 8
 -14804225.832 8        52.300          48.400
  20024709.398    20024698.750                    20024698.805   -25731312.890 8
 -20043757.365 9        51.900          54.100
  23080202.664    23080194.594                    23080195.000    -8160861.345 6
  -7383144.499 7        40.800          42.900
  21078223.367                                    21078208.672   -22753134.250 8
 -16303811.38146        48.200          37.700
  21786290.313                                    21786279.777    -5640793.936 5
  -4194994.78542        33.200          15.600
  24551717.328    24551707.441                    24551705.914    -2398592.354 6
  -1859680.288 6        36.900          40.000
 18  1  6  0  0 16.0000000  0  6G07G09G30G23G16G05
  21306136.570    21306124.105                    21306124.395   -16268526.851 8
 -14805672.399 8        52.300          48.400
  20024679.820    20024669.113                    20024669.168   -25731469.152 8
 -20043879.131 9        51.500          54.100
  23079638.828    23079630.230                    23079630.695    -8163826.671 6
  -7385455.133 7        41.600          42.700
  21078559.422                                    21078545.664   -22751366.805 8
 -16302434.14746        48.300          37.800
  21786690.836                                    21786680.242    -5638689.362 5
  -4193354.83642        32.800          15.600
  24551153.367    24551143.305                    24551142.188    -2401555.961 6
  -1861989.590 6        37.100          39.900
 18  1  6  0  0 17.0000000  0  6G07G09G30G23G16G05
  21305783.336    21305770.754                    21305771.043   -16270383.074 8
 -14807118.807 8        52.100          48.300
  20024649.398    20024640.684                    20024640.504   -25731625.001 8
 -20044000.570 9        51.200          54.100
  23079074.727    23079065.777                    23079066.301    -8166791.918 6
  -7387765.716 7        41.700          42.600
  21078896.086                                    21078881.918   -22749599.005 8
 -16301056.64446        48.500          37.600
  21787091.461                                    21787080.926    -5636584.328 5
  -4191714.54042        33.200          15.600
  24550589.969    24550579.496                    24550578.320    -2404519.305 6
  -1864298.701 6        37.300          39.800
 18  1  6  0  0 18.0000000  0  6G07G09G30G23G16G05
  21305430.031    21305417.625                    21305418.031   -16272238.909 8
 -14808564.913 8        51.700          48.200
  20024620.250    20024610.188                    20024610.066   -25731780.289 8
 -20044121.574 9        51.300          54.300
  23078510.836    23078501.477                    23078502.059    -8169756.917 6
  -7390076.107 7        41.800          42.600
  21079232.367                                    21079218.492   -22747830.695 8
 -16299678.73946        48.300          37.500
  21787492.398                                    21787481.395    -5634478.627 5
  -4190073.72442        32.400          15.600
  24550025.992    24550015.930                    24550014.813    -2407482.230 6
  -1866607.479 6        37.600          39.800
 18  1  6  0  0 19.0000000  0  6G07G09G30G23G16G05
  21305077.211    21305064.629                    21305065.035   -16274094.408 8
 -14810010.758 8        52.000          48.400
  20024590.563    20024581.027                    20024581.199   -25731935.022 8
 -20044242.146 9        51.300          54.100
  23077946.867    23077937.332                    23077938.148    -8172721.666 7
  -7392386.308 7        42.000          42.500
  21079568.844                                    21079555.145   -22746061.920 8
 -16298300.47846        48.500          37.700
  21787893.180                                    21787882.176    -5632372.270 5
  -4188432.40542        33.000          15.600
  24549462.242    24549451.652                    24549450.594    -2410444.737 6
  -1868915.930 6        36.800          39.800
 18  1  6  0  0 20.0000000  0  6G07G09G30G23G16G05
  21304724.258    21304711.910                    21304712.258   -16275949.210 8
 -14811456.051 8        52.100          48.400
  20024562.203    20024551.496                    20024551.668   -25732088.882 8
 -20044362.037 9        51.100          54.200
  23077382.461    23077372.926                    23077373.859    -8175685.815 7
  -7394696.035 7        42.400          42.400
  21079906.000                                    21079891.832   -22744292.327 7
 -16296921.57246        47.900          37.700
  21788293.703                                    21788282.875    -5630264.970 5
  -4186790.38542        33.000          15.600
  24548898.492    24548888.137                    24548887.371    -2413406.558 6
  -1871223.852 6        37.200          39.600
 18  1  6  0  0 21.0000000  0  6G07G09G30G23G16G05
  21304371.586    21304358.652                    21304358.941   -16277804.165 8
 -14812901.470 8        52.100          48.200
  20024531.875    20024521.168                    20024521.457   -25732242.681 8
 -20044481.877 9        51.200          54.200
  23076819.086    23076808.965                    23076809.898    -8178650.255 6
  -7397005.993 7        41.800          42.400
  21080242.672                                    21080228.387   -22742522.759 8
 -16295542.68946        48.100          37.700
  21788695.352                                    21788684.113    -5628157.500 5
  -4185148.22642        33.800          15.600
  24548334.852    24548324.496                    24548323.730    -2416368.393 6
  -1873531.778 6        36.000          39.700
 18  1  6  0  0 22.0000000  0  6G07G09G30G23G16G05
  21304018.313    21304005.848                    21304006.195   -16279658.915 8
 -14814346.733 8        51.800          48.400
  20024502.320    20024492.141                    20024492.254   -25732396.091 8
 -20044601.418 9        51.600          54.300
  23076254.594    23076244.531                    23076245.582    -8181614.595 6
  -7399315.877 7        41.800          42.600
  21080578.836                                    21080565.313   -22740752.864 8
 -16294163.55046        48.200          37.700
  21789096.164                                    21789085.453    -5626049.585 5
  -4183505.70742        33.700          15.600
  24547770.547    24547760.777                    24547760.305    -2419330.037 6
  -1875839.557 6        36.600          39.600
 18  1  6  0  0 23.0000000  0  6G07G09G30G23G16G05
  21303665.703    21303652.945                    21303653.293   -16281513.257 8
 -14815791.676 8        51.500          48.400
  20024474.016    20024462.664                    20024462.660   -25732548.885 8
 -20044720.478 9        51.700          54.300
  23075690.203    23075680.668                    23075681.602    -8184578.663 7
  -7401625.542 7        42.100          42.700
  21080915.820                                    21080902.180   -22738982.416 8
 -16292783.97746        48.100          38.100
  21789497.586                                    21789486.406    -5623941.008 5
  -4181862.67042        33.400          16.300
  24547206.625    24547197.383                    24547196.852    -2422291.234 6
  -1878146.985 6        36.000          39.800
 18  1  6  0  0 24.0000000  0  6G07G09G30G23G16G05
  21303312.961    21303299.852                    21303300.316   -16283367.135 8
 -14817236.255 8        51.700          48.500
  20024445.188    20024434.598                    20024435.004   -25732701.030 8
 -20044839.029 9        51.700          54.300
  23075125.961    23075117.070                    23075117.711    -8187542.386 6
  -7403934.934 7        40.900          42.900
  21081252.938                                    21081239.297   -22737211.400 8
 -16291403.96946        48.200          38.100
  21789898.844                                    21789887.898    -5621831.598 5
  -4180218.93942        33.400          16.300
  24546643.297    24546633.586                    24546633.406    -2425251.910 6
  -1880454.001 6        36.000          39.900
 18  1  6  0  0 25.0000000  0  6G07G09G30G23G16G05
  21302960.305    21302947.430                    21302947.836   -16285220.470 8
 -14818680.412 8        52.000          48.500
  20024415.508    20024406.559                    20024406.672   -25732852.462 8
 -20044957.038 9        51.700          54.500
  23074562.008    23074553.293                    23074553.758    -8190505.678 6
  -7406243.994 7        40.000          43.000
  21081590.063                                    21081576.305   -22735439.742 8
 -16290023.45946        48.200          37.900
  21790300.945                                    21790289.590    -5619721.420 5
  -4178574.62442        33.800          16.900
  24546080.273    24546070.738                    24546070.324    -2428212.015 5
  -1882760.573 6        35.500          40.000
 18  1  6  0  0 26.0000000  0  6G07G09G30G23G16G05
  21302607.664    21302594.965                    21302595.254   -16287073.736 8
 -14820124.513 8        52.100          48.700
  20024387.109    20024376.344                    20024376.633   -25733003.618 8
 -20045074.818 9        51.700          54.300
  23073998.258    23073989.719                    23073990.301    -8193469.026 6
  -7408553.091 7        40.300          42.800
  21081927.445                                    21081912.984   -22733667.883 8
 -16288642.79046        48.300          38.100
  21790702.359                                    21790691.473    -5617610.959 5
  -4176930.13942        34.900          16.300
  24545516.922    24545507.797                    24545507.383    -2431171.937 5
  -1885066.998 6        34.900          40.000
 18  1  6  0  0 27.0000000  0  6G07G09G30G23G16G05
  21302255.023    21302242.207                    21302242.496   -16288926.693 8
 -14821568.382 8        52.700          48.700
  20024358.969    20024348.438                    20024348.844   -25733154.244 8
 -20045192.191 9        51.800          54.300
  23073433.820    23073425.457                    23073425.980    -8196432.147 6
  -7410862.006 7        40.200          43.000
  21082264.648                                    21082250.773   -22731895.551 8
 -16287261.75646        48.600          38.300
  21791104.031                                    21791092.910    -5615499.780 5
  -4175285.05042        33.800          16.300
  24544953.594    24544944.586                    24544944.230    -2434131.558 5
  -1887373.195 6        35.400          39.800
 18  1  6  0  0 28.0000000  0  6G07G09G30G23G16G05
  21301902.648    21301890.066                    21301890.180   -16290779.321 8
 -14823011.976 8        52.500          48.800
  20024330.063    20024320.000                    20024320.230   -25733304.379 8
 -20045309.180 9        51.700          54.400
  23072870.156    23072861.676                    23072862.141    -8199395.083 6
  -7413170.784 7        40.300          43.000
  21082601.781                                    21082587.906   -22730122.791 8
 -16285880.37846        48.600          37.900
  21791506.031                                    21791494.559    -5613388.040 5
  -4173639.55142        33.700          16.300
  24544389.836    24544381.004                    24544380.883    -2437090.795 5
  -1889679.082 6        35.700          39.800
 18  1  6  0  0 29.0000000  0  6G07G09G30G23G16G05
  21301550.242    21301537.250                    21301537.480   -16292631.625 8
 -14824455.328 8        52.400          48.700
  20024300.500    20024290.379                    20024290.492   -25733453.964 8
 -20045425.738 9        52.300          54.500
  23072306.320    23072298.074                    23072298.129    -8202357.770 6
  -7415479.367 7        40.800          43.000
  21082939.250                                    21082925.199   -22728349.548 8
 -16284498.62746        48.500          38.200
  21791908.688                                    21791896.629    -5611275.656 5
  -4171993.53142        33.700          16.300
  24543827.195    24543817.777                    24543817.832    -2440049.611 5
  -1891984.645 6        35.100          39.400
 18  1  6  0  0 30.0000000  0  6G07G09G30G23G16G05
  21301197.773    21301184.957                    21301185.246   -16294483.700 8
 -14825898.501 8        52.600          48.900
  20024272.703    20024263.109                    20024263.340   -25733603.110 8
 -20045541.950 9        51.700          54.400
  23071742.844    23071734.422                    23071734.477    -8205320.353 6
  -7417787.871 7        41.100          43.100
  21083277.125                                    21083262.781   -22726575.959 8
 -16283116.61246        48.400          38.200
  21792310.547                                    21792298.957    -5609162.797 5
  -4170347.19242        33.600          16.300
  24543263.992    24543254.867                    24543254.863    -2443008.148 5
  -1894290.001 6        34.700          39.500
 18  1  6  0  0 31.0000000  0  6G07G09G30G23G16G05
  21300845.328    21300832.043                    21300832.566   -16296335.607 8
 -14827341.545 8        52.700          48.800
  20024244.859    20024234.563                    20024234.793   -25733751.922 8
 -20045657.908 9        51.900          54.400
  23071178.992    23071170.570                    23071170.801    -8208282.905 6
  -7420096.357 7        40.800          43.100
  21083614.242                                    21083600.426   -22724802.084 8
 -16281734.37546        48.300          38.200
  21792713.344                                    21792701.227    -5607049.508 5
  -4168700.50142        34.400          16.300
  24542701.711    24542691.766                    24542691.762    -2445966.515 5
  -1896595.221 6        35.400          39.700
 18  1  6  0  0 32.0000000  0  6G07G09G30G23G16G05
  21300493.141    21300479.855                    21300480.438   -16298186.803 8
 -14828784.034 8        52.700          48.900
  20024216.773    20024206.418                    20024206.648   -25733899.802 8
 -20045773.140 9        51.300          54.300
  23070615.469    23070607.105                    23070607.277    -8211244.850 6
  -7422404.362 7        40.500          43.200
  21083951.969                                    21083937.918   -22723027.365 8
 -16280351.47046        48.300          38.300
  21793115.383                                    21793103.441    -5604935.134 5
  -4167052.89742        34.300          16.900
  24542139.023    24542129.254                    24542129.133    -2448924.055 5
  -1898899.805 6        34.500          39.700
 18  1  6  0  0 33.0000000  0  6G07G09G30G23G16G05
  21300140.531    21300127.773                    21300128.238   -16300038.075 8
 -14830226.586 8        52.400          48.800
  20024188.094    20024178.266                    20024178.438   -25734047.566 8
 -20045888.289 9        51.900          54.500
  23070051.570    23070043.559                    23070043.496    -8214206.970 6
  -7424712.511 7        40.800          43.200
  21084289.414                                    21084275.773   -22721252.590 8
 -16278968.53346        48.300          38.500
  21793517.570                                    21793505.688    -5602820.675 5
  -4165405.27242        34.300          16.300
  24541576.000    24541566.699                    24541566.402    -2451881.667 5
  -1901204.442 6        34.800          40.200
 18  1  6  0  0 34.0000000  0  6G07G09G30G23G16G05
  21299788.250    21299775.551                    21299776.074   -16301888.641 8
 -14831668.590 8        52.400          48.800
  20024160.367    20024150.188                    20024150.301   -25734194.429 8
 -20046002.723 9        51.200          54.500
  23069488.367    23069479.945                    23069479.824    -8217168.501 6
  -7427020.195 7        41.400          43.400
  21084627.250                                    21084613.844   -22719476.972 8
 -16277584.93146        48.300          38.700
  21793920.672                                    21793908.145    -5600705.127 5
  -4163756.77242        33.700          16.300
  24541013.508    24541004.090                    24541003.559    -2454838.475 5
  -1903508.450 6        35.000          40.200
 18  1  6  0  0 35.0000000  0  6G07G09G30G23G16G05
  21299436.375    21299423.559                    21299423.965   -16303739.206 8
 -14833110.583 8        52.400          48.600
  20024133.453    20024122.688                    20024123.035   -25734341.095 8
 -20046117.013 9        51.500          54.600
  23068924.398    23068916.094                    23068915.973    -8220130.141 6
  -7429327.962 7        41.700          43.700
  21084965.703                                    21084951.652   -22717701.221 8
 -16276201.22946        48.100          38.500
  21794322.000                                    21794310.410    -5598589.344 5
  -4162108.09342        34.200          16.300
  24540451.055    24540441.402                    24540440.695    -2457795.294 5
  -1905812.467 6        35.800          40.400
 18  1  6  0  0 36.0000000  0  6G07G09G30G23G16G05
  21299084.281    21299071.641                    21299072.105   -16305589.286 8
 -14834552.206 8        52.100          48.800
  20024105.078    20024094.547                    20024094.953   -25734487.069 8
 -20046230.757 9        51.200          54.700
  23068360.688    23068353.262                    23068353.023    -8223091.400 6
  -7431635.433 7        41.400          43.700
  21085303.742                                    21085289.633   -22715924.870 8
 -16274817.05946        48.000          38.800
  21794724.906                                    21794713.492    -5596472.826 5
  -4160458.87642        34.600          16.300
  24539887.977    24539879.086                    24539878.145    -2460751.546 5
  -1908116.032 6        35.700          40.200
 18  1  6  0  0 37.0000000  0  6G07G09G30G23G16G05
  21298732.047    21298719.816                    21298719.930   -16307439.101 8
 -14835993.620 8        51.900          48.700
  20024077.359    20024067.063                    20024067.410   -25734632.577 8
 -20046344.135 9        51.500          54.400
  23067797.477    23067789.582                    23067789.227    -8226052.521 6
  -7433942.804 7        40.800          43.400
  21085641.227                                    21085627.820   -22714148.112 8
 -16273432.57046        48.100          38.900
  21795127.555                                    21795116.434    -5594355.696 5
  -4158809.20042        34.900          16.900
  24539325.563    24539316.379                    24539315.730    -2463707.476 6
  -1910419.344 6        36.100          40.300
 18  1  6  0  0 38.0000000  0  6G07G09G30G23G16G05
  21298380.469    21298368.004                    21298368.059   -16309288.619 8
 -14837434.799 8        52.200          48.700
  20024049.250    20024039.480                    20024039.887   -25734777.594 8
 -20046457.131 9        51.200          54.500
  23067233.594    23067225.523                    23067225.754    -8229013.429 6
  -7436250.006 7        40.000          43.400
  21085979.367                                    21085965.551   -22712370.949 7
 -16272047.77246        47.700          38.800
  21795531.172                                    21795519.113    -5592238.030 5
  -4157159.07442        34.300          16.300
  24538762.961    24538753.660                    24538753.363    -2466663.052 5
  -1912722.383 6        35.800          40.400
 18  1  6  0  0 39.0000000  0  6G07G09G30G23G16G05
  21298028.320    21298015.797                    21298015.969   -16311137.822 8
 -14838875.737 8        51.900          48.700
  20024021.867    20024011.160                    20024011.332   -25734922.110 8
 -20046569.741 9        51.700          54.400
  23066670.266    23066662.313                    23066662.543    -8231974.144 6
  -7438557.054 7        40.600          43.200
  21086317.961                                    21086304.203   -22710593.336 7
 -16270662.62446        47.800          38.500
  21795934.711                                    21795922.477    -5590119.702 5
  -4155508.41542        35.000          15.600
  24538200.680    24538191.027                    24538190.613    -2469618.259 6
  -1915025.137 6        36.300          40.500
 18  1  6  0  0 40.0000000  0  6G07G09G30G23G16G05
  21297676.438    21297664.148                    21297664.027   -16312986.748 8
 -14840316.457 8        51.700          48.600
  20023993.641    20023984.398                    20023984.922   -25735066.141 8
 -20046681.972 9        51.600          54.400
  23066107.289    23066098.691                    23066098.863    -8234934.727 6
  -7440864.000 7        40.700          43.500
  21086656.539                                    21086642.605   -22708815.336 7
 -16269277.16446        47.900          38.600
  21796338.070                                    21796325.367    -5588000.885 5
  -4153857.38042        34.900          15.600
  24537639.211    24537629.090                    24537628.793    -2472573.178 6
  -1917327.669 6        36.500          40.600
 18  1  6  0  0 41.0000000  0  6G07G09G30G23G16G05
  21297324.766    21297312.359                    21297312.590   -16314835.233 8
 -14841756.834 8        51.700          48.700
  20023968.016    20023957.016                    20023957.246   -25735209.536 8
 -20046793.713 9        51.900          54.500
  23065544.000    23065535.461                    23065535.984    -8237894.958 6
  -7443170.671 7        40.500          43.500
  21086994.852                                    21086981.152   -22707036.738 8
 -16267891.24046        48.300          38.600
  21796741.438                                    21796728.793    -5585881.284 5
  -4152205.76142        34.700          15.600
  24537077.391    24537066.449                    24537066.328    -2475527.499 6
  -1919629.746 6        36.500          40.800
 18  1  6  0  0 42.0000000  0  6G07G09G30G23G16G05
  21296973.219    21296960.930                    21296960.809   -16316683.517 8
 -14843197.053 8        51.800          49.000
  20023940.063    20023929.707                    20023929.879   -25735352.526 8
 -20046905.130 9        51.600          54.600
  23064980.945    23064971.996                    23064972.285    -8240855.093 6
  -7445477.260 7        39.500          43.400
  21087333.625                                    21087319.574   -22705257.846 8
 -16266505.09546        48.300          38.500
  21797144.852                                    21797132.031    -5583761.243 5
  -4150553.80842        35.400          16.300
  24536515.922    24536504.453                    24536504.332    -2478481.677 6
  -1921931.707 6        36.600          40.800
 18  1  6  0  0 43.0000000  0  6G07G09G30G23G16G05
  21296621.297    21296609.008                    21296608.887   -16318531.509 8
 -14844637.051 8        52.100          49.100
  20023913.258    20023903.137                    20023903.133   -25735495.015 8
 -20047016.164 9        51.500          54.800
  23064418.008    23064408.355                    23064409.055    -8243815.065 6
  -7447783.735 7        39.900          43.000
  21087672.180                                    21087657.953   -22703478.502 8
 -16265118.59746        48.200          38.400
  21797548.563                                    21797535.449    -5581640.606 5
  -4148901.34942        35.700          16.300
  24535953.406    24535943.227                    24535942.988    -2481435.466 6
  -1924233.366 6        37.100          40.700
 18  1  6  0  0 44.0000000  0  6G07G09G30G23G16G05
  21296269.828    21296257.539                    21296257.535   -16320379.058 8
 -14846076.695 8        52.200          49.100
  20023886.328    20023876.266                    20023876.203   -25735636.891 8
 -20047126.714 9        51.800          54.700
  23063854.602    23063845.242                    23063846.000    -8246774.704 6
  -7450089.946 7        39.400          42.900
  21088010.875                                    21087997.000   -22701698.616 8
 -16263731.66746        48.200          38.500
  21797953.055                                    21797939.414    -5579519.244 5
  -4147248.32142        35.300          16.300
  24535391.195    24535381.250                    24535380.719    -2484388.765 6
  -1926534.639 6        37.100          40.700
 18  1  6  0  0 45.0000000  0  6G07G09G30G23G16G05
  21295918.273    21295906.160                    21295906.039   -16322226.562 8
 -14847516.310 8        52.100          49.000
  20023859.555    20023848.789                    20023848.727   -25735778.501 8
 -20047237.055 9        52.000          54.800
  23063291.586    23063282.109                    23063282.867    -8249734.400 6
  -7452396.205 7        40.500          42.800
  21088349.875                                    21088335.648   -22699918.527 8
 -16262344.58646        48.600          38.500
  21798357.359                                    21798343.426    -5577397.561 5
  -4145595.04042        35.900          16.300
  24534829.992    24534819.109                    24534818.578    -2487341.933 6
  -1928835.816 6        36.800          40.800
 18  1  6  0  0 46.0000000  0  6G07G09G30G23G16G05
  21295566.547    21295554.668                    21295554.547   -16324073.761 8
 -14848955.685 8        52.400          49.200
  20023832.133    20023822.539                    20023822.652   -25735919.641 8
 -20047347.040 9        51.200          54.600
  23062727.859    23062718.734                    23062719.551    -8252693.919 6
  -7454702.323 7        40.200          43.000
  21088688.000                                    21088674.594   -22698138.022 7
 -16260957.17646        47.600          38.700
  21798760.430                                    21798747.082    -5575275.271 5
  -4143941.31442        35.700          16.300
  24534268.156    24534257.449                    24534256.977    -2490294.792 5
  -1931136.746 6        35.000          40.900
 18  1  6  0  0 47.0000000  0  6G07G09G30G23G16G05
  21295215.313    21295203.023                    21295203.195   -16325920.509 8
 -14850394.710 8        52.700          48.900
  20023805.367    20023795.363                    20023795.359   -25736060.093 8
 -20047456.482 9        50.500          54.600
  23062164.914    23062155.555                    23062156.430    -8255653.070 6
  -7457008.152 7        39.500          43.100
  21089027.141                                    21089013.383   -22696356.938 7
 -16259569.31346        47.600          38.600
  21799165.320                                    21799151.211    -5573152.300 6
  -4142287.06942        36.000          16.300
  24533706.047    24533695.691                    24533695.277    -2493247.127 5
  -1933437.259 6        35.200          40.800
 18  1  6  0  0 48.0000000  0  6G07G09G30G23G16G05
  21294863.914    21294851.215                    21294851.621   -16327766.906 8
 -14851833.456 8        52.600          48.800
  20023779.391    20023768.449                    20023768.387   -25736200.005 8
 -20047565.501 9        50.300          54.700
  23061601.625    23061592.324                    23061593.258    -8258611.994 6
  -7459313.804 7        39.900          42.600
  21089366.516                                    21089352.230   -22694575.373 8
 -16258181.07846        48.000          38.900
  21799568.883                                    21799555.418    -5571028.638 6
  -4140632.29142        36.000          16.300
  24533144.055    24533133.523                    24533133.461    -2496199.023 5
  -1935737.439 6        35.400          40.800
 18  1  6  0  0 49.0000000  0  6G07G09G30G23G16G05
  21294512.586    21294500.297                    21294500.586   -16329613.193 8
 -14853272.127 8        52.800          48.500
  20023752.359    20023742.473                    20023742.410   -25736339.632 8
 -20047674.301 9        50.800          54.400
  23061038.578    23061029.102                    23061030.211    -8261570.945 6
  -7461619.479 7        40.200          42.500
  21089705.383                                    21089691.273   -22692793.578 8
 -16256792.67146        48.600          38.800
  21799973.984                                    21799959.582    -5568904.616 6
  -4138977.19642        36.200          16.300
  24532582.609    24532571.492                    24532571.547    -2499150.803 5
  -1938037.520 6        35.100          40.900
 18  1  6  0  0 50.0000000  0  6G07G09G30G23G16G05
  21294161.344    21294148.645                    21294149.168   -16331459.013 8
 -14854710.429 8        52.800          48.500
  20023725.898    20023715.133                    20023715.305   -25736478.569 8
 -20047782.568 9        50.500          54.400
  23060475.227    23060466.219                    23060467.211    -8264529.519 6
  -7463924.863 7        40.600          42.500
  21090044.602                                    21090030.375   -22691011.183 8
 -16255403.79746        48.400          38.800
  21800378.539                                    21800363.609    -5566779.835 6
  -4137321.50642        36.300          16.300
  24532020.719    24532010.012                    24532009.949    -2502102.034 5
  -1940337.186 6        35.700          40.600
 18  1  6  0  0 51.0000000  0  6G07G09G30G23G16G05
  21293810.078    21293797.613                    21293797.961   -16333304.336 8
 -14856148.340 8        52.000          48.600
  20023700.461    20023689.637                    20023689.867   -25736616.813 8
 -20047890.288 9        50.500          54.200
  23059913.297    23059903.293                    23059904.168    -8267487.701 6
  -7466229.943 7        40.900          42.500
  21090383.906                                    21090369.738   -22689228.177 7
 -16254014.43546        47.900          38.700
  21800782.805                                    21800768.227    -5564654.262 6
  -4135665.23042        36.500          16.300
  24531459.305    24531448.832                    24531448.652    -2505052.759 6
  -1942636.453 6        36.100          40.500
 18  1  6  0  0 52.0000000  0  6G07G09G30G23G16G05
  21293458.875    21293446.879                    21293447.051   -16335149.590 8
 -14857586.198 8        52.300          48.500
  20023673.258    20023662.961                    20023663.250   -25736754.786 8
 -20047997.802 9        50.300          54.300
  23059349.164    23059339.922                    23059340.855    -8270445.937 6
  -7468535.067 7        41.300          42.500
  21090723.078                                    21090708.910   -22687444.959 8
 -16252624.91846        48.100          38.700
  21801188.188                                    21801172.789    -5562528.376 6
  -4134008.68942        37.200          16.300
  24530898.008    24530887.242                    24530887.121    -2508003.287 6
  -1944935.569 6        36.300          40.400
 18  1  6  0  0 53.0000000  0  6G07G09G30G23G16G05
  21293108.016    21293095.668                    21293095.898   -16336994.633 8
 -14859023.900 8        52.600          48.500
  20023647.258    20023637.371                    20023637.484   -25736892.376 8
 -20048105.019 9        50.500          54.000
  23058787.086    23058777.199                    23058778.191    -8273404.097 6
  -7470840.127 7        41.300          42.600
  21091062.367                                    21091048.609   -22685661.412 8
 -16251235.14646        48.400          38.400
  21801592.383                                    21801577.453    -5560401.965 6
  -4132351.75342        36.300          16.900
  24530336.078    24530326.074                    24530325.953    -2510953.642 6
  -1947234.551 6        36.600          40.500
 18  1  6  0  0 54.0000000  0  6G07G09G30G23G16G05
  21292756.898    21292744.609                    21292744.781   -16338839.126 8
 -14860461.166 8        52.800          48.700
  20023621.680    20023611.031                    20023611.262   -25737029.232 8
 -20048211.656 8        50.800          53.800
  23058224.094    23058213.797                    23058215.023    -8276361.793 6
  -7473144.823 7        40.600          42.600
  21091402.258                                    21091388.266   -22683877.228 8
 -16249844.87346        48.700          38.500
  21801996.781                                    21801982.027    -5558274.762 6
  -4130694.18342        36.900          16.300
  24529773.539    24529764.883                    24529764.703    -2513903.330 6
  -1949533.009 6        36.400          40.400
 18  1  6  0  0 55.0000000  0  7G07G09G30G23G16G27G05
  21292406.148    21292393.684                    21292393.973   -16340683.369 8
 -14861898.239 8        52.900          48.500
  20023596.156    20023585.098                    20023585.152   -25737165.596 8
 -20048317.913 8        51.200          53.700
  23057660.898    23057651.598                    23057652.238    -8279319.345 6
  -7475449.408 7        41.100          42.700
  21091741.594                                    21091727.836   -22682092.620 8
 -16248454.26246        49.000          38.800
  21802402.125                                    21802387.078    -5556146.998 6
  -4129036.14742        36.900          15.600
  23729438.125                                                      508318.38315
                        32.400
  24529211.898    24529203.594                    24529203.180    -2516852.730 5
  -1951831.250 6        35.000          40.500
 18  1  6  0  0 56.0000000  0  7G07G09G30G23G16G27G05
  21292055.172    21292042.766                    21292043.172   -16342527.164 8
 -14863334.963 8        52.500          48.400
  20023569.008    20023558.652                    20023558.883   -25737301.344 8
 -20048423.692 8        51.700          53.400
  23057098.391    23057089.148                    23057089.730    -8282276.593 6
  -7477753.754 7        41.100          42.600
  21092081.672                                    21092067.797   -22680307.453 8
 -16247063.22946        48.500          38.700
  21802807.547                                    21802792.207    -5554018.484 6
  -4127377.56642        36.600          16.300
  23728993.797                                                      505978.525 5
                        32.200
  24528650.297    24528641.934                    24528641.695    -2519801.623 5
  -1954129.084 6        33.800          40.400
 18  1  6  0  0 57.0000000  0  7G07G09G30G23G16G27G05
  21291704.508    21291691.926                    21291692.156   -16344371.129 8
 -14864771.820 8        52.900          48.600
  20023544.000    20023532.707                    20023533.113   -25737437.039 8
 -20048529.424 8        52.000          53.500
  23056535.281    23056525.980                    23056526.738    -8285234.092 6
  -7480058.294 7        41.400          42.700
  21092421.125                                    21092407.191   -22678522.320 8
 -16245672.21446        48.600          38.900
  21803212.438                                    21803196.980    -5551889.881 6
  -4125718.95842        36.600          15.600
  23728548.234                                                      503638.588 5
                        32.800
  24528088.430    24528081.004                    24528080.766    -2522750.607 5
  -1956426.991 6        34.100          40.600
 18  1  6  0  0 58.0000000  0  7G07G09G30G23G16G27G05
  21291353.898    21291340.965                    21291341.254   -16346214.217 8
 -14866207.993 8        52.800          48.700
  20023518.414    20023507.707                    20023507.938   -25737571.674 8
 -20048634.331 8        51.600          53.500
  23055972.859    23055963.266                    23055964.082    -8288190.853 6
  -7482362.260 7        41.300          42.600
  21092760.805                                    21092746.988   -22676736.182 8
 -16244280.41546        48.300          39.000
  21803617.633                                    21803602.117    -5549760.095 6
  -4124059.40842        36.700          15.600
  23728103.492                                                      501299.656 5
                        33.600
  24527527.773    24527520.055                    24527519.875    -2525698.703 5
  -1958724.216 6        33.900          40.700
 18  1  6  0  0 59.0000000  0  7G07G09G30G23G16G27G05
  21291002.320    21290989.797                    21290990.027   -16348059.551 8
 -14867645.912 8        52.900          48.600
  20023492.148    20023481.617                    20023481.965   -25737708.355 8
 -20048740.840 8        51.900          53.500
  23055410.039    23055399.742                    23055400.734    -8291149.964 6
  -7484668.066 7        40.500          43.000
  21093100.250                                    21093086.785   -22674952.179 8
 -16242890.28646        48.400          38.900
  21804021.602                                    21804006.906    -5547632.330 5
  -4122401.40142        35.900          15.600
  23727658.734                                                      498958.588 5
                        34.000
  24526966.242    24526958.641                    24526958.227    -2528648.982 5
  -1961023.127 6        33.600          40.700
 18  1  6  0  1  0.0000000  0  7G07G09G30G23G16G27G05
  21290652.047    21290639.348                    21290639.520   -16349902.529 8
 -14869081.997 8        52.800          48.800
  20023466.594    20023456.004                    20023456.293   -25737842.494 8
 -20048845.366 8        51.200          53.500
  23054847.711    23054837.648                    23054838.523    -8294106.845 6
  -7486972.139 7        40.500          43.000
  21093440.844                                    21093426.969   -22673165.704 8
 -16241498.22646        48.300          39.100
  21804425.570                                    21804412.398    -5545501.922 5
  -4120741.36442        35.800          16.300
  23727213.938    23727203.230                                      496619.941 5
    264774.80916        34.000          37.400
  24526404.539    24526397.641                    24526397.285    -2531596.813 5
  -1963320.125 6        34.200          40.800
 18  1  6  0  1  1.0000000  0  7G07G09G30G23G16G27G05
  21290301.289    21290288.238                    21290288.527   -16351745.768 8
 -14870518.282 8        52.900          48.700
  20023440.828    20023431.234                    20023431.523   -25737976.671 8
 -20048949.913 8        51.600          53.700
  23054284.883    23054274.293                    23054275.344    -8297064.045 6
  -7489276.444 7        41.000          43.000
  21093780.156                                    21093766.691   -22671379.329 8
 -16240106.25046        48.800          39.300
  21804831.305                                    21804817.547    -5543371.461 5
  -4119081.25942        35.600          16.300
  23726768.734    23726758.379                                      494281.198 5
    262952.410 6        34.000          37.600
  24525843.891    24525836.465                    24525836.109    -2534544.911 5
  -1965617.341 6        34.300          40.800
 18  1  6  0  1  2.0000000  0  7G07G09G30G23G16G27G05
  21289950.586    21289938.063                    21289938.352   -16353587.849 8
 -14871953.681 8        53.100          48.800
  20023416.023    20023404.730                    20023404.844   -25738109.509 8
 -20049053.424 8        51.400          53.900
  23053721.914    23053712.320                    23053712.961    -8300020.231 6
  -7491579.967 7        40.600          43.200
  21094120.648                                    21094106.598   -22669591.656 8
 -16238713.25746        48.600          39.000
  21805236.680                                    21805223.273    -5541239.565 5
  -4117420.00542        34.900          15.600
  23726322.672    23726313.371                                      491943.676 5
    261130.969 6        34.000          37.400
  24525284.297    24525275.641                    24525275.461    -2537491.766 5
  -1967913.579 6        33.600          40.800
 18  1  6  0  1  3.0000000  0  7G07G09G30G23G16G27G05
  21289600.336    21289587.520                    21289587.750   -16355429.657 8
 -14873388.851 8        53.100          48.900
  20023390.711    20023380.063                    20023380.234   -25738241.844 8
 -20049156.544 8        50.700          53.800
  23053159.711    23053150.059                    23053150.582    -8302976.250 6
  -7493883.357 7        41.100          43.100
  21094460.742                                    21094446.926   -22667803.612 8
 -16237319.97846        48.600          38.900
  21805642.172                                    21805628.707    -5539107.088 5
  -4115758.33542        34.200          15.600
  23725878.805    23725869.152                                      489606.606 5
    259309.868 6        34.900          37.600
  24524722.859    24524715.082                    24524715.078    -2540438.249 5
  -1970209.543 6        34.300          40.900
 18  1  6  0  1  4.0000000  0  7G07G09G30G23G16G27G05
  21289250.016    21289237.375                    21289237.547   -16357271.225 8
 -14874823.839 8        53.300          49.100
  20023365.883    20023355.410                    20023355.465   -25738373.783 8
 -20049259.352 8        51.100          53.800
  23052597.375    23052587.488                    23052588.129    -8305932.170 6
  -7496186.672 7        41.800          43.100
  21094801.227                                    21094787.234   -22666015.184 8
 -16235926.39146        48.600          39.000
  21806048.102                                    21806034.520    -5536974.136 5
  -4114096.30742        34.100          15.600
  23725434.656    23725424.594                                      487269.831 5
    257489.010 6        34.900          37.700
  24524162.766    24524153.816                    24524154.223    -2543384.505 5
  -1972505.327 6        34.200          40.800
 18  1  6  0  1  5.0000000  0  7G07G09G30G23G16G27G05
  21288899.586    21288887.238                    21288887.176   -16359112.531 8
 -14876258.627 8        53.200          48.900
  20023340.570    20023329.863                    20023330.270   -25738505.218 8
 -20049361.773 8        51.300          53.800
  23052034.852    23052025.844                    23052026.074    -8308887.898 6
  -7498489.836 7        41.900          43.100
  21095141.773                                    21095127.430   -22664226.356 8
 -16234532.50346        49.200          38.600
  21806454.367                                    21806440.492    -5534840.652 5
  -4112433.88842        33.500          15.600
  23724990.555    23724979.965                                      484933.427 5
    255668.440 6        34.400          37.800
  24523602.492    24523593.309                    24523593.949    -2546330.366 5
  -1974800.811 6        32.900          40.200
 18  1  6  0  1  6.0000000  0  7G07G09G30G23G16G27G05
  21288549.094    21288536.512                    21288536.566   -16360953.421 8
 -14877693.088 8        52.600          48.800
  20023315.547    20023305.016                    20023305.012   -25738636.073 8
 -20049463.733 9        51.700          54.100
  23051472.445    23051462.793                    23051463.023    -8311843.351 6
  -7500792.781 7        40.600          43.200
  21095481.992                                    21095467.824   -22662437.020 8
 -16233138.21746        49.100          39.100
  21806859.734                                    21806846.738    -5532706.457 5
  -4110770.83642        33.900          16.300
  23724545.570    23724535.508                                      482597.553 5
    253848.277 6        33.800          37.900
  24523042.609    24523032.898                    24523033.246    -2549275.811 5
  -1977095.963 6        32.900          40.200
 18  1  6  0  1  7.0000000  0  7G07G09G30G23G16G27G05
  21288198.633    21288186.344                    21288186.457   -16362794.194 8
 -14879127.456 8        52.900          48.900
  20023290.594    20023280.590                    20023280.762   -25738766.619 8
 -20049565.450 9        51.800          54.200
  23050909.797    23050900.496                    23050900.492    -8314798.807 6
  -7503095.728 7        41.400          43.600
  21095822.773                                    21095808.723   -22660647.436 8
