     2.10           OBSERVATION DATA    M (MIXED)           RINEX VERSION / TYPE
RTKCONV 2.4.3 b33                       20210424 192826 UTC PGM / RUN BY / DATE 
log: D:\Study\PhD Research\Data\ublox\2021.4.24-kinematic\  COMMENT             
format: u-blox                                              COMMENT             
                                                            MARKER NAME         
                                                            MARKER NUMBER       
                                                            OBSERVER / AGENCY   
                                                            REC # / TYPE / VERS 
                                                            ANT # / TYPE        
   858593.0585 -4522850.3649  4399904.4554                  APPROX POSITION XYZ 
        0.0000        0.0000        0.0000                  ANTENNA: DELTA H/E/N
     1     1                                                WAVELENGTH FACT L1/2
     8    C1    L1    D1    S1    C2    L2    D2    S2      # / TYPES OF OBSERV 
  2021     4    24    15    12   14.9930000     GPS         TIME OF FIRST OBS   
  2021     4    24    15    33   33.9930000     GPS         TIME OF LAST OBS    
                                                            END OF HEADER       
 21  4 24 15 12 14.9930000  0  9G 4G 7G 8G 9G16G26G27G30G21
  21483166.765   112894790.526       -4083.157          40.000    21483163.792  
  87969965.911       -3181.814          41.000  
  18807333.832    98833194.763        1344.000          45.000    18807327.800  
  77012868.392        1047.412          43.000  
  18175857.685    95514756.872         391.853          49.000    18175853.557  
  74427079.208         305.361          44.000  
  20002835.664   105115610.248       -2940.574          42.000    20002831.846  
  81908258.907       -2291.379          45.000  
  21050218.278   110619632.310       -3499.887          44.000                  
                                                
  23188242.750   121855032.715       -3557.469          39.000    23188242.266  
  94951983.897       -2772.405          40.000  
  18770121.379    98637644.648       -2153.998          47.000    18770117.045  
  76860495.222       -1678.479          47.000  
  21561805.901   113308043.283        2765.397          43.000    21561800.972  
  88291972.162        2154.610          36.000  
  21919397.465   115187208.221        2647.726          34.000                  
                                                
 21  4 24 15 12 15.9930000  0  9G 4G 7G 8G 9G16G26G27G30G21
  21483943.918   112898873.775       -4083.368          40.000    21483940.819  
  87973147.649       -3182.003          41.000  
  18807078.135    98831850.917        1343.658          45.000    18807072.020  
  77011821.244        1046.948          43.000  
  18175783.217    95514365.339         391.098          49.000    18175779.111  
  74426774.128         304.647          44.000  
  20003395.216   105118551.112       -2941.203          42.000    20003391.445  
  81910550.474       -2291.688          45.000  
  21050884.309   110623132.287       -3500.125          44.000                  
                                                
  23188919.733   121858590.281       -3557.637          39.000    23188919.098  
  94954756.007       -2771.994          40.000  
  18770531.371    98639798.972       -2154.669          47.000    18770526.929  
  76862173.911       -1678.900          47.000  
  21561279.752   113305277.970        2765.294          43.000    21561274.750  
  88289817.375        2154.428          36.000  
  21918893.459   115184560.127        2647.796          34.000                  
                                                
 21  4 24 15 12 16.9930000  0  9G 4G 7G 8G 9G16G26G27G30G21
  21484721.056   112902957.125       -4083.506          40.000    21484718.026  
  87976329.467       -3181.801          41.000  
  18806822.489    98830507.410        1343.378          45.000    18806816.294  
  77010774.348        1046.667          43.000  
  18175708.976    95513974.428         390.582          49.000    18175704.729  
  74426469.508         304.389          44.000  
  20003954.919   105121492.392       -2941.352          42.000    20003951.083  
  81912842.390       -2292.172          45.000  
  21051550.407   110626632.312       -3500.077          44.000                  
                                                
  23189596.655   121862147.771       -3557.033          39.000    23189595.975  
  94957528.102       -2772.247          40.000  
  18770941.563    98641953.860       -2155.255          47.000    18770936.885  
  76863853.042       -1679.340          47.000  
  21560753.746   113302512.741        2765.189          42.000    21560748.537  
  88287662.626        2154.754          37.000  
  21918389.444   115181912.071        2648.306          34.000                  
                                                
 21  4 24 15 12 17.9930000  0  9G 4G 7G 8G 9G16G26G27G30G21
  21485498.205   112907040.409       -4083.725          40.000    21485495.037  
  87979511.232       -3182.010          41.000  
  18806566.765    98829164.053        1342.987          45.000    18806560.561  
  77009727.565        1046.631          43.000  
  18175634.718    95513583.945         389.985          49.000    18175630.451  
  74426165.239         303.764          44.000  
  20004514.689   105124433.918       -2941.793          42.000    20004510.864  
  81915134.482       -2292.238          45.000  
  21052216.409   110630132.192       -3499.952          44.000                  
                                                
  23190273.600   121865705.078       -3557.915          39.000    23190272.946  
  94960300.003       -2772.421          39.000  
  18771351.642    98644109.126       -2155.701          47.000    18771346.951  
  76865532.471       -1679.797          47.000  
  21560227.548   113299747.413        2764.801          43.000    21560222.400  
  88285507.818        2154.755          37.000  
  21917885.440   115179263.956        2647.675          34.000                  
                                                
 21  4 24 15 12 18.9930000  0  9G 4G 7G 8G 9G16G26G27G30G21
  21486275.396   112911123.828       -4083.146          40.000    21486272.082  
  87982693.136       -3181.891          41.000  
  18806311.174    98827821.071        1343.042          44.000    18806305.051  
  77008681.098        1046.521          43.000  
  18175560.576    95513194.147         389.729          49.000    18175556.280  
  74425861.508         303.527          44.000  
  20005074.473   105127375.945       -2942.333          41.000    20005070.806  
  81917426.964       -2292.546          45.000  
  21052882.411   110633632.198       -3499.783          44.000                  
                                                
  23190950.417   121869262.320       -3556.683          39.000    23190949.867  
  94963071.874       -2771.549          40.000  
  18771761.918    98646265.012       -2156.018          47.000    18771757.197  
  76867212.378       -1679.968          47.000  
  21559701.508   113296982.195        2765.487          43.000    21559696.226  
  88283353.101        2154.951          37.000  
  21917381.671   115176615.889        2648.118          34.000                  
                                                
 21  4 24 15 12 19.9930000  0  9G 4G 7G 8G 9G16G26G27G30G21
  21487052.618   112915207.444       -4083.513          40.000    21487049.109  
  87985875.177       -3182.104          41.000  
  18806055.691    98826478.500        1342.303          44.000    18806049.564  
  77007634.941        1045.978          43.000  
  18175486.519    95512805.040         388.831          49.000    18175482.165  
  74425558.293         302.941          44.000  
  20005634.363   105130318.455       -2942.743          41.000    20005630.732  
  81919719.828       -2293.167          45.000  
  21053548.516   110637132.326       -3500.263          44.000                  
                                                
  23191627.400   121872819.617       -3557.225          39.000    23191626.773  
  94965843.797       -2771.825          39.000  
  18772172.303    98648421.537       -2156.824          47.000    18772167.554  
  76868892.790       -1680.670          47.000  
  21559175.557   113294217.132        2765.040          43.000    21559170.104  
  88281198.518        2154.449          37.000  
  21916877.877   115173967.951        2647.485          34.000                  
                                                
 21  4 24 15 12 20.9930000  0  9G 4G 7G 8G 9G16G26G27G30G21
  21487829.834   112919291.346       -4083.892          40.000    21487826.361  
  87989057.425       -3182.362          41.000  
  18805800.352    98825136.423        1341.693          44.000    18805794.229  
  77006589.163        1045.605          43.000  
  18175412.767    95512416.728         387.756          49.000    18175408.203  
  74425255.718         302.188          44.000  
  20006194.476   105133261.560       -2943.331          41.000    20006190.861  
  81922013.161       -2293.612          45.000  
  21054214.679   110640632.680       -3500.502          44.000                  
                                                
  23192304.354   121876377.016       -3557.557          38.000    23192303.681  
  94968615.790       -2772.025          39.000  
  18772582.810    98650578.793       -2157.831          47.000    18772578.169  
  76870573.764       -1681.244          47.000  
  21558649.511   113291452.289        2764.880          43.000    21558643.998  
  88279044.089        2154.331          37.000  
  21916374.054   115171320.215        2647.934          34.000                  
                                                
 21  4 24 15 12 21.9930000  0  9G 4G 7G 8G 9G16G26G27G30G21
  21488607.020   112923375.528       -4084.400          40.000    21488603.504  
  87992239.899       -3182.765          41.000  
  18805544.976    98823794.842        1341.437          44.000    18805538.878  
  77005543.776        1045.337          43.000  
  18175338.994    95512029.186         387.051          49.000    18175334.435  
  74424953.736         301.684          44.000  
  20006754.660   105136205.257       -2943.951          41.000    20006751.017  
  81924306.940       -2293.972          45.000  
  21054880.862   110644133.228       -3500.622          44.000                  
                                                
  23192981.319   121879934.544       -3557.875          39.000    23192980.651  
  94971387.889       -2772.408          39.000  
  18772993.544    98652736.769       -2158.252          47.000    18772988.882  
  76872255.312       -1681.744          47.000  
  21558123.599   113288687.710        2764.483          43.000    21558117.890  
  88276889.860        2154.372          37.000  
  21915870.295   115168672.730        2647.337          34.000                  
                                                
 21  4 24 15 12 22.9930000  0  9G 4G 7G 8G 9G16G26G27G30G21
  21489384.456   112927460.047       -4084.564          40.000    21489380.779  
  87995422.639       -3182.856          41.000  
  18805289.798    98822453.850        1340.863          44.000    18805283.701  
  77004498.848        1044.885          43.000  
  18175265.488    95511642.511         386.271          49.000    18175260.831  
  74424652.431         301.056          44.000  
  20007315.019   105139149.651       -2944.724          42.000    20007311.350  
  81926601.272       -2294.631          45.000  
  21055547.008   110647634.091       -3500.809          44.000                  
                                                
  23193658.376   121883492.236       -3557.608          39.000    23193657.568  
  94974160.124       -2772.514          39.000  
  18773404.449    98654895.583       -2159.137          47.000    18773399.680  
  76873937.508       -1682.544          47.000  
  21557597.633   113285923.432        2764.240          43.000    21557591.814  
  88274735.897        2154.128          37.000  
  21915366.645   115166025.512        2647.280          34.000                  
                                                
 21  4 24 15 12 23.9930000  0  9G 4G 7G 8G 9G16G26G27G30G21
  21490161.875   112931544.742       -4084.793          40.000    21490158.010  
  87998605.502       -3182.821          41.000  
  18805034.803    98821113.251        1340.588          44.000    18805028.620  
  77003454.222        1044.641          43.000  
  18175191.972    95511256.512         385.893          49.000    18175187.361  
  74424351.657         300.607          44.000  
  20007875.376   105142094.512       -2945.061          42.000    20007871.709  
  81928895.961       -2294.867          45.000  
  21056213.171   110651135.072       -3501.026          44.000                  
                                                
  23194335.493   121887049.959       -3557.768          38.000    23194334.556  
  94976932.356       -2772.276          39.000  
  18773815.335    98657055.003       -2159.711          47.000    18773810.476  
  76875620.170       -1682.812          47.000  
  21557071.734   113283159.304        2764.066          43.000    21557065.869  
  88272582.023        2153.918          37.000  
  21914862.925   115163378.398        2646.961          34.000                  
                                                
 21  4 24 15 12 24.9930000  0  9G 4G 7G 8G 9G16G26G27G30G21
  21490939.223   112935629.622       -4084.781          40.000    21490935.340  
  88001788.535       -3183.123          41.000  
  18804779.820    98819773.068        1339.801          44.000    18804773.425  
  77002409.924        1043.988          43.000  
  18175118.576    95510871.224         384.851          49.000    18175114.007  
  74424051.421         299.957          44.000  
  20008435.873   105145039.881       -2945.806          42.000    20008432.269  
  81931191.056       -2295.249          45.000  
  21056879.489   110654636.179       -3501.225          44.000                  
                                                
  23195012.511   121890607.687       -3557.825          38.000    23195011.469  
  94979704.615       -2772.262          39.000  
  18774226.348    98659215.071       -2160.455          47.000    18774221.466  
  76877303.343       -1683.466          47.000  
  21556545.703   113280395.311        2763.794          43.000    21556539.917  
  88270428.254        2154.021          37.000  
  21914359.101   115160731.406        2647.206          34.000                  
                                                
 21  4 24 15 12 25.9930000  0  9G 4G 7G 8G 9G16G26G27G30G21
  21491716.726   112939715.004       -4085.480          40.000    21491712.688  
  88004971.931       -3183.423          41.000  
  18804524.995    98818433.596        1339.191          44.000    18804518.512  
  77001366.190        1043.414          43.000  
  18175045.429    95510486.932         383.830          49.000    18175040.915  
  74423751.973         299.343          44.000  
  20008996.510   105147986.053       -2946.491          42.000    20008992.954  
  81933486.770       -2295.914          45.000  
  21057545.751   110658137.720       -3501.753          44.000                  
                                                
  23195689.685   121894165.757       -3558.088          38.000    23195688.467  
  94982477.138       -2772.375          39.000  
  18774637.601    98661376.086       -2161.346          48.000    18774632.749  
  76878987.248       -1684.082          47.000  
  21556019.871   113277631.767        2763.334          43.000    21556013.933  
  88268274.877        2153.112          37.000  
  21913855.280   115158084.853        2646.948          34.000                  
                                                
 21  4 24 15 12 26.9930000  0  9G 4G 7G 8G 9G16G26G27G30G21
  21492494.227   112943800.733       -4085.574          40.000    21492490.154  
  88008155.620       -3183.506          41.000  
  18804270.344    98817094.702        1338.940          44.000    18804263.782  
  77000322.901        1043.091          43.000  
  18174972.482    95510103.521         383.199          48.000    18174967.996  
  74423453.227         298.441          44.000  
  20009557.297   105150932.903       -2946.778          42.000    20009553.800  
  81935783.023       -2296.151          45.000  
  21058212.112   110661639.550       -3501.705          44.000                  
                                                
  23196366.918   121897724.022       -3558.012          38.000    23196365.672  
  94985249.811       -2772.589          39.000  
  18775049.025    98663537.920       -2162.048          48.000    18775044.140  
  76880671.796       -1684.753          47.000  
  21555494.111   113274868.565        2763.035          43.000    21555488.134  
  88266121.716        2153.013          38.000  
  21913351.562   115155438.604        2646.376          34.000                  
                                                
 21  4 24 15 12 27.9930000  0  9G 4G 7G 8G 9G16G26G27G30G21
  21493271.761   112947886.792       -4086.472          40.000    21493267.701  
  88011339.568       -3184.286          40.000  
  18804015.630    98815756.373        1337.976          44.000    18804009.086  
  76999280.034        1042.505          43.000  
  18174899.649    95509720.955         381.959          48.000    18174895.124  
  74423155.113         297.697          44.000  
  20010118.167   105153880.411       -2948.034          42.000    20010114.662  
  81938079.795       -2297.398          45.000  
  21058878.554   110665141.662       -3502.495          44.000                  
                                                
  23197044.223   121901282.453       -3558.784          38.000    23197042.755  
  94988022.602       -2772.883          39.000  
  18775460.620    98665700.536       -2163.269          48.000    18775455.689  
  76882356.952       -1685.687          47.000  
  21554968.383   113272105.645        2762.572          43.000    21554962.371  
  88263968.775        2152.739          38.000  
  21912848.134   115152792.634        2645.778          34.000                  
                                                
 21  4 24 15 12 28.9930000  0  9G 4G 7G 8G 9G16G26G27G30G21
  21494049.451   112951973.327       -4086.615          40.000    21494045.320  
  88014523.856       -3184.177          40.000  
  18803761.161    98814418.725        1337.427          45.000    18803754.541  
  76998237.719        1042.188          43.000  
  18174827.064    95509339.381         381.189          48.000    18174822.480  
  74422857.776         296.883          44.000  
  20010679.175   105156828.697       -2948.549          42.000    20010675.664  
  81940377.145       -2297.338          45.000  
  21059545.125   110668644.171       -3502.617          44.000                  
                                                
  23197721.582   121904841.199       -3559.078          38.000    23197719.952  
  94990795.650       -2773.150          39.000  
  18775872.287    98667864.061       -2163.672          48.000    18775867.424  
  76884042.827       -1686.169          48.000  
  21554442.751   113269343.165        2762.262          43.000    21554436.676  
  88261816.180        2153.039          38.000  
  21912344.675   115150147.055        2645.836          34.000                  
                                                
 21  4 24 15 12 29.9930000  0  9G 4G 7G 8G 9G16G26G27G30G21
  21494827.216   112956060.183       -4086.842          40.000    21494822.945  
  88017708.426       -3184.547          40.000  
  18803506.705    98813081.634        1337.079          45.000    18803500.110  
  76997195.835        1041.748          43.000  
  18174754.636    95508958.636         380.436          48.000    18174749.983  
  74422561.080         296.608          44.000  
  20011240.441   105159777.641       -2949.010          42.000    20011236.860  
  81942675.040       -2298.049          45.000  
  21060211.647   110672146.969       -3502.876          44.000                  
                                                
  23198398.872   121908400.103       -3558.919          39.000    23198397.164  
  94993568.826       -2773.235          39.000  
  18776284.119    98670028.399       -2164.545          48.000    18776279.246  
  76885729.307       -1686.523          48.000  
  21553917.220   113266580.971        2762.219          43.000    21553911.066  
  88259663.846        2152.294          37.000  
  21911841.425   115147501.782        2644.979          35.000                  
                                                
 21  4 24 15 12 30.9930000  0  9G 4G 7G 8G 9G16G26G27G30G21
  21495605.024   112960147.251       -4087.354          40.000    21495600.683  
  88020893.124       -3184.519          40.000  
  18803252.406    98811744.957        1336.432          45.000    18803245.810  
  76996154.267        1041.406          43.000  
  18174682.253    95508578.571         379.674          48.000    18174677.753  
  74422264.929         295.791          44.000  
  20011801.697   105162727.105       -2949.937          42.000    20011798.117  
  81944973.301       -2298.619          45.000  
  21060878.182   110675649.886       -3503.054          43.000                  
                                                
  23199076.137   121911959.027       -3559.079          39.000    23199074.467  
  94996342.004       -2773.270          39.000  
  18776696.131    98672193.375       -2165.308          48.000    18776691.249  
  76887416.318       -1687.354          47.000  
  21553391.638   113263818.945        2761.947          43.000    21553385.369  
  88257511.611        2152.000          37.000  
  21911338.001   115144856.628        2644.436          35.000                  
                                                
 21  4 24 15 12 31.9930000  0  9G 4G 7G 8G 9G16G26G27G30G21
  21496382.833   112964234.589       -4087.679          39.000    21496378.566  
  88024078.098       -3185.398          40.000  
  18802998.151    98810408.792        1335.730          45.000    18802991.554  
  76995113.107        1041.077          43.000  
  18174610.186    95508199.336         378.744          49.000    18174605.565  
  74421969.443         295.154          44.000  
  20012363.066   105165677.163       -2950.471          42.000    20012359.521  
  81947272.047       -2299.135          45.000  
  21061544.723   110679153.035       -3503.435          43.000                  
                                                
  23199753.576   121915518.080       -3558.981          39.000    23199751.718  
  94999115.312       -2773.544          39.000  
  18777108.224    98674359.106       -2166.241          48.000    18777103.446  
  76889103.893       -1687.964          47.000  
  21552866.146   113261057.180        2761.399          43.000    21552859.919  
  88255359.586        2151.683          38.000  
  21910834.709   115142211.641        2645.165          35.000                  
                                                
 21  4 24 15 12 32.9930000  0  9G 4G 7G 8G 9G16G26G27G30G21
  21497160.772   112968322.126       -4087.542          39.000    21497156.437  
  88027263.180       -3185.238          40.000  
  18802744.070    98809073.081        1335.272          45.000    18802737.314  
  76994072.282        1040.503          43.000  
  18174538.112    95507820.824         377.985          48.000    18174533.461  
  74421674.494         294.439          44.000  
  20012924.499   105168627.764       -2951.172          42.000    20012921.024  
  81949571.208       -2299.479          45.000  
  21062211.328   110682656.356       -3503.576          43.000                  
                                                
  23200430.960   121919077.192       -3559.264          39.000    23200429.006  
  95001888.632       -2773.373          39.000  
  18777520.383    98676525.493       -2166.907          48.000    18777515.747  
  76890791.996       -1688.501          47.000  
  21552340.699   113258295.560        2761.393          43.000    21552334.283  
  88253207.679        2151.715          37.000  
  21910331.440   115139566.866        2644.270          35.000                  
                                                
 21  4 24 15 12 33.9930000  0  9G 4G 7G 8G 9G16G26G27G30G21
  21497938.715   112972409.699       -4087.525          39.000    21497934.299  
  88030448.302       -3185.362          40.000  
  18802489.985    98807737.597        1335.449          45.000    18802483.150  
  76993031.652        1040.521          43.000  
  18174466.065    95507442.848         377.855          48.000    18174461.447  
  74421379.958         294.477          44.000  
  20013485.985   105171578.679       -2950.869          42.000    20013482.613  
  81951870.631       -2299.531          45.000  
  21062877.913   110686159.637       -3503.256          44.000                  
                                                
  23201108.361   121922636.150       -3558.713          39.000    23201106.243  
  95004661.856       -2773.180          39.000  
  18777932.826    98678692.346       -2166.858          48.000    18777928.180  
  76892480.464       -1688.733          47.000  
  21551815.202   113255533.943        2761.724          43.000    21551808.803  
  88251055.776        2152.281          37.000  
  21909828.008   115136921.989        2645.338          35.000                  
                                                
 21  4 24 15 12 34.9930000  0  9G 4G 7G 8G 9G16G26G27G30G21
  21498716.601   112976497.456       -4087.872          39.000    21498712.092  
  88033633.563       -3185.314          40.000  
  18802236.069    98806402.540        1334.741          45.000    18802229.019  
  76991991.339        1040.308          43.000  
  18174394.322    95507065.570         376.911          49.000    18174389.641  
  74421085.980         293.750          44.000  
  20014047.646   105174530.116       -2951.897          42.000    20014044.215  
  81954170.448       -2300.195          45.000  
  21063544.541   110689663.045       -3503.771          44.000                  
                                                
  23201785.689   121926195.167       -3559.135          39.000    23201783.512  
  95007435.085       -2773.188          39.000  
  18778345.361    98680859.860       -2167.908          48.000    18778340.752  
  76894169.431       -1689.349          47.000  
  21551289.701   113252772.482        2761.341          43.000    21551283.301  
  88248903.973        2151.757          37.000  
  21909324.687   115134277.320        2644.410          34.000                  
                                                
 21  4 24 15 12 35.9930000  0  9G 4G 7G 8G 9G16G26G27G30G21
  21499494.655   112980585.666       -4088.613          39.000    21499490.071  
  88036819.168       -3185.947          40.000  
  18801982.029    98805068.128        1334.076          45.000    18801974.921  
  76990951.547        1039.545          43.000  
  18174322.671    95506689.243         375.889          49.000    18174317.947  
  74420792.739         292.888          44.000  
  20014609.385   105177482.292       -2952.808          42.000    20014606.026  
  81956470.847       -2300.645          45.000  
  21064211.355   110693166.821       -3504.006          44.000                  
                                                
  23202463.049   121929754.410       -3559.322          39.000    23202460.814  
  95010208.543       -2773.615          39.000  
  18778757.892    98683028.251       -2168.921          48.000    18778753.401  
  76895859.081       -1689.978          47.000  
  21550764.258   113250011.419        2760.801          43.000    21550757.983  
  88246752.519        2151.188          38.000  
  21908821.542   115131632.989        2644.105          34.000                  
                                                
 21  4 24 15 12 36.9930000  0  9G 4G 7G 8G 9G16G26G27G30G21
  21500272.731   112984674.080       -4088.907          39.000    21500268.105  
  88040004.937       -3185.871          40.000  
  18801728.221    98803734.180        1333.423          45.000    18801721.119  
  76989912.115        1039.075          43.000  
  18174251.233    95506313.682         374.820          49.000    18174246.419  
  74420500.084         292.219          44.000  
  20015171.221   105180435.045       -2953.354          42.000    20015167.945  
  81958771.694       -2301.316          45.000  
  21064878.047   110696670.791       -3504.389          44.000                  
                                                
  23203140.500   121933313.769       -3559.842          39.000    23203138.266  
  95012982.078       -2774.051          39.000  
  18779170.745    98685197.341       -2169.690          48.000    18779166.236  
  76897549.287       -1690.686          47.000  
  21550239.059   113247250.549        2760.550          43.000    21550232.624  
  88244601.216        2150.926          38.000  
  21908318.240   115128988.824        2643.719          34.000                  
                                                
 21  4 24 15 12 37.9930000  0  9G 4G 7G 8G 9G16G26G27G30G21
  21501050.752   112988762.858       -4088.731          39.000    21501046.221  
  88043190.996       -3185.824          40.000  
  18801474.490    98802400.808        1333.252          45.000    18801467.304  
  76988873.126        1038.837          43.000  
  18174179.841    95505938.982         374.445          49.000    18174175.129  
  74420208.114         291.866          44.000  
  20015733.222   105183388.457       -2953.597          42.000    20015729.970  
  81961073.033       -2301.372          45.000  
  21065544.955   110700175.033       -3504.117          44.000                  
                                                
  23203817.893   121936873.289       -3559.234          39.000    23203815.579  
  95015755.705       -2773.621          39.000  
  18779583.562    98687367.223       -2170.099          48.000    18779579.039  
  76899240.111       -1690.985          47.000  
  21549713.622   113244489.993        2760.534          43.000    21549707.365  
  88242450.120        2151.037          38.000  
  21907815.018   115126344.947        2644.408          34.000                  
                                                
 21  4 24 15 12 38.9930000  0  9G 4G 7G 8G 9G16G26G27G30G21
  21501828.844   112992851.703       -4089.033          39.000    21501824.329  
  88046377.096       -3186.060          40.000  
  18801220.760    98801067.726        1332.941          45.000    18801213.619  
  76987834.361        1038.672          43.000  
  18174108.717    95505564.867         373.765          49.000    18174103.898  
  74419916.588         291.339          44.000  
  20016295.358   105186342.241       -2954.011          42.000    20016292.020  
  81963374.700       -2301.745          45.000  
  21066211.822   110703679.292       -3504.203          44.000                  
                                                
  23204495.223   121940432.719       -3559.367          38.000    23204492.927  
  95018529.276       -2773.434          39.000  
  18779996.588    98689537.643       -2170.630          48.000    18779992.043  
  76900931.339       -1691.473          47.000  
  21549188.383   113241729.477        2760.763          43.000    21549182.113  
  88240299.071        2151.105          37.000  
  21907311.777   115123701.111        2644.065          34.000                  
                                                
 21  4 24 15 12 39.9930000  0  9G 4G 7G 8G 9G16G26G27G30G21
  21502607.032   112996940.866       -4089.602          39.000    21502602.472  
  88049563.448       -3186.463          40.000  
  18800967.199    98799735.203        1332.050          45.000    18800959.940  
  76986796.042        1037.543          43.000  
  18174037.663    95505191.586         372.743          49.000    18174032.896  
  74419625.724         290.344          44.000  
  20016857.516   105189296.670       -2954.927          42.000    20016854.215  
  81965676.855       -2302.611          46.000  
  21066878.680   110707183.829       -3504.795          44.000                  
                                                
  23205172.698   121943992.319       -3560.059          38.000    23205170.377  
  95021302.997       -2774.024          39.000  
  18780409.804    98691708.845       -2171.863          48.000    18780405.222  
  76902623.185       -1692.310          47.000  
  21548663.139   113238969.265        2759.732          43.000    21548656.864  
  88238148.255        2150.270          38.000  
  21906808.616   115121057.563        2642.763          34.000                  
                                                
 21  4 24 15 12 40.9930000  0  9G 4G 7G 8G 9G16G26G27G30G21
  21503385.198   113001030.250       -4089.595          39.000    21503380.646  
  88052749.986       -3186.617          40.000  
  18800713.746    98798403.124        1331.964          45.000    18800706.510  
  76985758.045        1037.982          43.000  
  18173966.741    95504819.051         372.209          49.000    18173962.026  
  74419335.433         290.000          44.000  
  20017419.811   105192251.661       -2955.282          42.000    20017416.542  
  81967979.437       -2302.669          46.000  
  21067545.736   110710688.528       -3504.667          44.000                  
                                                
  23205850.023   121947551.972       -3559.723          38.000    23205847.811  
  95024076.744       -2773.444          39.000  
  18780823.035    98693880.711       -2172.107          48.000    18780818.457  
  76904315.549       -1692.517          47.000  
  21548137.956   113236209.219        2760.152          43.000    21548131.709  
  88235997.557        2150.801          37.000  
  21906305.454   115118414.097        2643.803          34.000                  
                                                
 21  4 24 15 12 41.9930000  0  9G 4G 7G 8G 9G16G26G27G30G21
  21504163.368   113005119.918       -4090.200          39.000    21504158.826  
  88055936.741       -3187.019          40.000  
  18800460.258    98797071.551        1330.981          45.000    18800453.245  
  76984720.461        1037.268          43.000  
  18173895.963    95504447.294         371.221          49.000    18173891.223  
  74419045.759         288.932          44.000  
  20017982.229   105195207.233       -2956.094          42.000    20017978.978  
  81970282.482       -2303.323          45.000  
  21068212.800   110714193.438       -3505.239          44.000                  
                                                
  23206527.549   121951111.729       -3560.317          38.000    23206525.211  
  95026850.599       -2774.459          39.000  
  18781236.457    98696053.311       -2173.114          48.000    18781232.009  
  76906008.485       -1693.445          47.000  
  21547612.823   113233449.428        2759.286          43.000    21547606.553  
  88233847.070        2150.832          37.000  
  21905802.419   115115770.906        2642.885          33.000                  
                                                
 21  4 24 15 12 42.9930000  0  9G 4G 7G 8G 9G16G26G27G30G21
  21504941.728   113009209.987       -4090.403          39.000    21504937.224  
  88059123.809       -3187.035          40.000  
  18800207.009    98795740.618        1330.798          45.000    18800200.090  
  76983683.375        1036.841          43.000  
  18173825.428    95504076.488         370.382          49.000    18173820.601  
  74418756.816         288.602          44.000  
  20018544.903   105198163.536       -2956.530          42.000    20018541.624  
  81972586.094       -2303.846          45.000  
  21068879.883   110717698.724       -3505.516          44.000                  
                                                
  23207205.014   121954671.752       -3560.013          38.000    23207202.771  
  95029624.647       -2774.400          39.000  
  18781650.026    98698226.804       -2173.914          48.000    18781645.587  
  76907702.112       -1693.939          47.000  
  21547087.672   113230690.019        2759.257          43.000    21547081.514  
  88231696.906        2149.795          37.000  
  21905299.394   115113128.068        2642.698          33.000                  
                                                
 21  4 24 15 12 43.9930000  0  9G 4G 7G 8G 9G16G26G27G30G21
  21505720.105   113013300.418       -4090.473          39.000    21505715.672  
  88062311.163       -3187.396          40.000  
  18799953.841    98794410.268        1330.334          45.000    18799946.933  
  76982646.735        1036.603          43.000  
  18173755.018    95503706.548         369.733          49.000    18173750.085  
  74418468.548         287.998          44.000  
  20019107.630   105201120.518       -2957.144          42.000    20019104.235  
  81974890.243       -2304.308          45.000  
  21069546.959   110721204.297       -3505.566          44.000                  
                                                
  23207882.574   121958231.984       -3560.075          38.000    23207880.210  
  95032398.822       -2774.045          39.000  
  18782063.802    98700401.092       -2174.469          48.000    18782059.265  
  76909396.360       -1694.421          47.000  
  21546562.497   113227930.938        2759.070          43.000    21546556.561  
  88229546.963        2149.829          37.000  
  21904796.422   115110485.517        2642.454          33.000                  
                                                
 21  4 24 15 12 44.9930000  0  9G 4G 7G 8G 9G16G26G27G30G21
  21506498.559   113017391.018       -4090.562          39.000    21506494.167  
  88065498.639       -3187.444          40.000  
  18799700.673    98793080.313        1329.883          45.000    18799693.818  
  76981610.405        1036.298          43.000  
  18173684.768    95503337.300         368.951          49.000    18173679.816  
  74418180.812         287.592          44.000  
  20019670.532   105204077.995       -2957.744          42.000    20019666.997  
  81977194.762       -2304.707          45.000  
  21070214.151   110724709.982       -3505.701          45.000                  
                                                
  23208560.182   121961792.194       -3559.875          38.000    23208557.732  
  95035173.024       -2774.108          39.000  
  18782477.665    98702576.021       -2175.256          48.000    18782473.056  
  76911091.103       -1694.910          47.000  
  21546037.575   113225171.976        2758.831          43.000    21546031.582  
  88227397.126        2149.966          37.000  
  21904293.514   115107843.121        2641.664          32.000                  
                                                
 21  4 24 15 12 45.9930000  0  9G 4G 7G 8G 9G16G26G27G30G21
  21507277.120   113021481.727       -4090.723          39.000    21507272.607  
  88068686.213       -3187.796          40.000  
  18799447.607    98791750.713        1329.333          44.000    18799440.825  
  76980574.353        1035.913          43.000  
  18173614.603    95502968.689         368.278          49.000    18173609.676  
  74417893.590         287.006          44.000  
  20020233.351   105207035.898       -2958.287          42.000    20020229.791  
  81979499.622       -2304.980          45.000  
  21070881.308   110728215.729       -3505.808          45.000                  
                                                
  23209237.685   121965352.405       -3560.315          38.000    23209235.254  
  95037947.201       -2774.157          39.000  
  18782891.662    98704751.516       -2175.781          48.000    18782886.966  
  76912786.296       -1695.398          47.000  
  21545512.636   113222413.130        2758.573          43.000    21545506.667  
  88225247.361        2149.769          37.000  
  21903790.651   115105200.719        2642.284          32.000                  
                                                
 21  4 24 15 12 46.9930000  0  9G 4G 7G 8G 9G16G26G27G30G21
  21508055.538   113025572.575       -4090.740          39.000    21508051.053  
  88071873.883       -3187.615          40.000  
  18799194.673    98790421.467        1328.998          44.000    18799187.962  
  76979538.572        1035.724          43.000  
  18173544.508    95502600.739         367.632          49.000    18173539.682  
  74417606.870         286.568          43.000  
  20020796.367   105209994.250       -2958.541          42.000    20020792.790  
  81981804.835       -2305.366          45.000  
  21071548.430   110731721.563       -3505.804          45.000                  
                                                
  23209915.225   121968912.550       -3560.165          38.000    23209912.676  
  95040721.348       -2774.301          39.000  
  18783305.817    98706927.597       -2176.251          48.000    18783301.082  
  76914481.944       -1695.831          47.000  
  21544987.564   113219654.342        2758.900          43.000    21544981.744  
  88223097.669        2149.819          37.000  
  21903287.797   115102558.429        2642.667          32.000                  
                                                
 21  4 24 15 12 47.9930000  0  9G 4G 7G 8G 9G16G26G27G30G21
  21508834.042   113029663.532       -4090.925          39.000    21508829.551  
  88075061.640       -3187.813          40.000  
  18798941.732    98789092.544        1328.888          44.000    18798935.038  
  76978503.057        1035.388          43.000  
  18173474.612    95502233.373         367.094          49.000    18173469.836  
  74417320.612         286.045          44.000  
  20021359.360   105212953.022       -2958.832          42.000    20021355.666  
  81984110.370       -2305.559          45.000  
  21072215.683   110735227.445       -3506.047          45.000                  
                                                
  23210592.780   121972472.662       -3560.249          38.000    23210590.163  
  95043495.425       -2773.650          39.000  
  18783720.042    98709104.234       -2176.886          48.000    18783715.301  
  76916178.019       -1696.259          47.000  
  21544462.668   113216895.645        2758.788          43.000    21544456.804  
  88220948.049        2149.243          37.000  
  21902784.957   115099916.240        2641.223          32.000                  
                                                
 21  4 24 15 12 48.9930000  0  9G 4G 7G 8G 9G16G26G27G30G21
  21509612.519   113033754.604       -4091.150          39.000    21509608.023  
  88078249.487       -3187.786          40.000  
  18798688.888    98787763.988        1328.369          44.000    18798682.306  
  76977467.804        1035.236          43.000  
  18173404.859    95501866.631         366.440          48.000    18173399.986  
  74417034.842         285.438          44.000  
  20021922.532   105215912.252       -2959.419          43.000    20021918.834  
  81986416.262       -2305.995          45.000  
  21072882.797   110738733.391       -3506.131          45.000                  
                                                
  23211270.294   121976032.718       -3560.094          38.000    23211267.582  
  95046269.515       -2774.295          39.000  
  18784134.404    98711281.449       -2177.478          48.000    18784129.617  
  76917874.550       -1696.668          47.000  
  21543937.755   113214137.042        2758.630          43.000    21543931.920  
  88218798.489        2149.499          37.000  
  21902281.965   115097274.031        2641.533          32.000                  
                                                
 21  4 24 15 12 49.9930000  0  9G 4G 7G 8G 9G16G26G27G30G21
  21510391.082   113037845.894       -4091.388          40.000    21510386.648  
  88081437.529       -3188.566          40.000  
  18798436.164    98786435.876        1327.753          44.000    18798429.535  
  76976432.913        1034.735          43.000  
  18173335.250    95501500.650         365.414          48.000    18173330.318  
  74416749.658         284.763          44.000  
  20022485.872   105218872.034       -2960.251          43.000    20022482.085  
  81988722.574       -2306.647          45.000  
  21073550.031   110742239.497       -3506.335          45.000                  
                                                
  23211947.891   121979592.835       -3559.812          38.000    23211945.040  
  95049043.628       -2773.949          39.000  
  18784548.875    98713459.354       -2178.271          48.000    18784544.049  
  76919571.617       -1697.437          47.000  
  21543412.749   113211378.638        2758.214          43.000    21543406.996  
  88216649.065        2149.266          37.000  
  21901779.107   115094632.037        2641.410          32.000                  
                                                
 21  4 24 15 12 50.9930000  0  9G 4G 7G 8G 9G16G26G27G30G21
  21511169.636   113041937.304       -4091.733          40.000    21511165.189  
  88084625.598       -3187.853          40.000  
  18798183.476    98785108.092        1327.496          44.000    18798176.815  
  76975398.278        1034.479          43.000  
  18173265.776    95501135.267         365.021          48.000    18173260.687  
  74416464.937         284.582          44.000  
  20023049.292   105221832.208       -2960.658          43.000    20023045.388  
  81991029.201       -2306.872          45.000  
  21074217.297   110745745.636       -3506.274          45.000                  
                                                
  23212625.349   121983152.907       -3560.065          38.000    23212622.545  
  95051817.701       -2774.046          39.000  
  18784963.353    98715637.805       -2178.955          48.000    18784958.616  
  76921269.112       -1697.827          47.000  
  21542887.762   113208620.283        2758.219          43.000    21542882.118  
  88214499.721        2148.906          37.000  
  21901276.321   115091990.093        2641.224          32.000                  
                                                
 21  4 24 15 12 51.9930000  0  9G 4G 7G 8G 9G16G26G27G30G21
  21511948.283   113046028.912       -4091.613          40.000    21511943.828  
  88087813.876       -3188.319          40.000  
  18797930.940    98783780.771        1327.142          44.000    18797924.300  
  76974363.999        1034.082          43.000  
  18173196.420    95500770.637         364.312          48.000    18173191.376  
  74416180.814         283.678          44.000  
  20023612.695   105224792.944       -2961.261          43.000    20023608.786  
  81993336.257       -2307.144          45.000  
  21074884.526   110749251.960       -3506.340          44.000                  
                                                
  23213302.818   121986713.034       -3560.242          38.000    23213300.106  
  95054591.833       -2774.184          39.000  
  18785378.022    98717816.935       -2179.297          48.000    18785373.274  
  76922967.134       -1698.199          47.000  
  21542362.818   113205862.121        2758.315          43.000    21542357.301  
  88212350.497        2149.323          36.000  
  21900773.717   115089348.323        2641.103          31.000                  
                                                
 21  4 24 15 12 52.9930000  0  9G 4G 7G 8G 9G16G26G27G30G21
  21512726.936   113050120.671       -4091.853          40.000    21512722.457  
  88091002.262       -3188.398          40.000  
  18797678.454    98782453.819        1326.727          44.000    18797671.805  
  76973330.022        1033.685          43.000  
  18173127.097    95500406.674         363.589          48.000    18173122.270  
  74415897.204         283.347          44.000  
  20024176.204   105227754.118       -2961.287          43.000    20024172.350  
  81995643.678       -2307.551          45.000  
  21075551.678   110752758.369       -3506.423          44.000                  
                                                
  23213980.218   121990273.136       -3559.947          38.000    23213977.593  
  95057365.939       -2773.936          39.000  
  18785792.861    98719996.665       -2180.084          48.000    18785788.101  
  76924665.631       -1698.773          47.000  
  21541837.992   113203104.083        2757.920          43.000    21541832.451  
  88210201.384        2149.208          36.000  
  21900270.951                        2640.095          31.000                  
                                                
 21  4 24 15 12 53.9930000  0  9G 4G 7G 8G 9G16G26G27G30G21
  21513505.510   113054212.619       -4092.133          40.000    21513501.069  
  88094190.784       -3188.742          40.000  
  18797426.032    98781127.259        1326.428          44.000    18797419.259  
  76972296.343        1033.478          43.000  
  18173057.938    95500043.364         363.093          48.000    18173052.935  
  74415614.117         282.849          44.000  
  20024740.033   105230715.774       -2961.678          43.000    20024735.930  
  81997951.463       -2307.755          45.000  
  21076218.973   110756264.879       -3506.469          45.000                  
                                                
  23214657.671   121993833.229       -3559.867          37.000    23214655.193  
  95060140.033       -2773.880          39.000  
  18786207.701    98722177.012       -2180.511          48.000    18786202.998  
  76926364.602       -1699.103          47.000  
  21541313.081   113200346.172        2758.077          43.000    21541307.504  
  88208052.389        2148.777          36.000  
  21899768.401                        2641.808          32.000                  
                                                
 21  4 24 15 12 54.9930000  0  9G 4G 7G 8G 9G16G26G27G30G21
  21514284.157   113058304.825       -4092.094          40.000    21514279.797  
  88097379.528       -3188.954          40.000  
  18797173.663    98779801.219        1326.050          44.000    18797166.823  
  76971263.068        1033.057          43.000  
  18172988.914    95499680.886         362.159          49.000    18172983.894  
  74415331.653         282.421          44.000  
  20025303.752   105233678.065       -2962.474          43.000    20025299.651  
  82000259.745       -2308.387          45.000  
  21076886.280   110759771.640       -3506.734          45.000                  
                                                
  23215335.183   121997393.480       -3559.960          37.000    23215332.668  
  95062914.262       -2774.321          39.000  
  18786622.767    98724358.117       -2181.305          48.000    18786618.168  
  76928064.173       -1699.902          47.000  
  21540788.379   113197588.528        2757.779          43.000    21540782.785  
  88205903.576        2148.378          36.000  
  21899265.655                        2641.026          31.000                  
                                                
 21  4 24 15 12 55.9930000  0  9G 4G 7G 8G 9G16G26G27G30G21
  21515063.037   113062397.266       -4092.635          40.000    21515058.544  
  88100568.433       -3189.027          40.000  
  18796921.399    98778475.641        1325.311          44.000    18796914.524  
  76970230.140        1032.507          42.000  
  18172920.143    95499319.152         361.317          49.000    18172915.089  
  74415049.792         281.608          44.000  
  20025867.597   105236640.888       -2963.057          44.000    20025863.377  
  82002568.435       -2308.939          45.000  
  21077553.622   110763278.567       -3507.041          45.000                  
                                                
  23216012.647   122000953.781       -3559.850          37.000    23216010.149  
  95065688.543       -2774.721          38.000  
  18787038.003    98726539.899       -2182.098          48.000    18787033.341  
  76929764.253       -1700.379          47.000  
  21540263.719   113194831.074        2757.360          43.000    21540258.014  
  88203754.878        2148.878          36.000  
  21898762.963   115078782.386        2641.055          31.000                  
                                                
 21  4 24 15 12 56.9930000  0  9G 4G 7G 8G 9G16G26G27G30G21
  21515841.786   113066489.957       -4093.100          40.000    21515837.431  
  88103757.541       -3189.221          40.000  
  18796669.232    98777150.516        1324.841          44.000    18796662.375  
  76969197.571        1032.300          42.000  
  18172851.413    95498958.161         360.443          49.000    18172846.463  
  74414768.503         280.924          44.000  
  20026431.550   105239604.271       -2963.638          44.000    20026427.355  
  82004877.564       -2309.498          45.000  
  21078221.061   110766785.676       -3507.435          44.000                  
                                                
  23216690.244   122004514.199       -3560.698          37.000    23216687.648  
  95068462.880       -2774.855          39.000  
  18787453.242    98728722.371       -2182.959          48.000    18787448.587  
  76931464.878       -1701.013          47.000  
  21539739.034   113192073.832        2756.937          43.000    21539733.230  
  88201606.384        2148.369          36.000  
  21898260.367   115076141.373        2640.760          31.000                  
                                                
 21  4 24 15 12 57.9930000  0  9G 4G 7G 8G 9G16G26G27G30G21
  21516620.587   113070582.934       -4093.147          40.000    21516616.339  
  88106946.881       -3189.441          40.000  
  18796417.107    98775825.946        1324.371          44.000    18796410.304  
  76968165.434        1031.891          42.000  
  18172782.822    95498597.990         359.781          49.000    18172777.907  
  74414487.852         280.326          44.000  
  20026995.652   105242568.283       -2964.417          44.000    20026991.472  
  82007187.171       -2309.869          45.000  
  21078888.532   110770293.026       -3507.303          44.000                  
                                                
  23217367.809   122008074.721       -3560.532          37.000    23217365.315  
  95071237.317       -2774.905          39.000  
  18787868.714    98730905.608       -2183.649          48.000    18787864.054  
  76933166.100       -1701.502          47.000  
  21539214.498   113189316.863        2756.859          43.000    21539208.550  
  88199458.114        2147.897          37.000  
  21897757.670   115073500.641        2639.962          32.000                  
                                                
 21  4 24 15 12 58.9930000  0  9G 4G 7G 8G 9G16G26G27G30G21
  21517399.466   113074676.011       -4093.129          40.000    21517395.111  
  88110136.292       -3189.367          40.000  
  18796165.141    98774501.697        1324.084          44.000    18796158.272  
  76967133.548        1031.757          42.000  
  18172714.421    95498238.419         359.244          49.000    18172709.429  
  74414207.674         279.704          44.000  
  20027559.769   105245532.702       -2964.819          44.000    20027555.583  
  82009497.114       -2310.288          45.000  
  21079555.920   110773800.430       -3507.449          44.000                  
                                                
  23218045.332   122011635.204       -3560.978          37.000    23218042.973  
  95074011.688       -2774.327          39.000  
  18788284.327    98733089.406       -2184.241          47.000    18788279.680  
  76934867.753       -1701.880          47.000  
  21538689.937   113186559.955        2756.984          43.000    21538683.966  
  88197309.869        2148.015          37.000  
  21897254.972   115070859.900        2640.903          32.000                  
                                                
 21  4 24 15 12 59.9930000  0  9G 4G 7G 8G 9G16G26G27G30G21
  21518178.479   113078769.421       -4093.790          40.000    21518174.058  
  88113325.956       -3189.857          40.000  
  18795913.286    98773178.010        1323.199          44.000    18795906.381  
  76966102.099        1031.232          42.000  
  18172646.128    95497879.686         358.117          49.000    18172641.106  
  74413928.135         279.109          44.000  
  20028123.973   105248497.765       -2965.537          44.000    20028119.869  
  82011807.541       -2310.626          45.000  
  21080223.322   110777308.102       -3507.895          44.000                  
                                                
  23218722.913   122015195.816       -3560.448          37.000    23218720.649  
  95076786.205       -2774.358          39.000  
  18788700.059    98735273.970       -2185.016          47.000    18788695.473  
  76936570.019       -1702.667          47.000  
  21538165.323   113183803.352        2756.154          43.000    21538159.477  
  88195161.848        2147.917          37.000  
  21896752.308   115068219.432        2640.305          32.000                  
                                                
 21  4 24 15 13  0.9930000  0  9G 4G 7G 8G 9G16G26G27G30G21
  21518957.506   113082862.961       -4093.894          40.000    21518953.091  
  88116515.728       -3190.158          40.000  
  18795661.512    98771854.645        1323.175          44.000    18795654.605  
  76965070.932        1030.853          42.000  
  18172577.999    95497521.581         357.531          49.000    18172573.002  
  74413649.091         278.634          44.000  
  20028688.447   105251463.278       -2966.109          44.000    20028684.320  
  82014118.338       -2311.088          45.000  
  21080890.688   110780815.832       -3507.912          44.000                  
                                                
  23219400.582   122018756.429       -3560.800          37.000    23219398.140  
  95079560.702       -2774.284          39.000  
  18789115.889    98737459.135       -2185.718          47.000    18789111.135  
  76938272.744       -1703.174          47.000  
  21537640.780   113181046.828        2756.234          43.000    21537634.969  
  88193013.940        2147.333          37.000  
  21896249.748   115065579.013        2640.846          32.000                  
