     2.10           OBSERVATION DATA    M (MIXED)           RINEX VERSION / TYPE
RTKCONV 2.4.3 b33                       20210424 192718 UTC PGM / RUN BY / DATE 
log: D:\Study\PhD Research\Data\ublox\2021.4.24-kinematic\  COMMENT             
format: u-blox                                              COMMENT             
                                                            MARKER NAME         
                                                            MARKER NUMBER       
                                                            OBSERVER / AGENCY   
                                                            REC # / TYPE / VERS 
                                                            ANT # / TYPE        
   856861.9185 -4528427.8407  4394523.6429                  APPROX POSITION XYZ 
        0.0000        0.0000        0.0000                  ANTENNA: DELTA H/E/N
     1     1                                                WAVELENGTH FACT L1/2
     8    C1    L1    D1    S1    C2    L2    D2    S2      # / TYPES OF OBSERV 
  2021     4    24    15     3   14.9940000     GPS         TIME OF FIRST OBS   
  2021     4    24    16     2   50.9950000     GPS         TIME OF LAST OBS    
                                                            END OF HEADER       
 21  4 24 15 12 14.9940000  0 11G 4G 7G 8G 9G16G21G27G30G18G14G26
  21914016.712   115158915.957       -4084.900          41.000    21914011.507  
  89734223.269       -3182.898          42.000  
  19246456.813   101140816.402        1342.593          45.000    19246449.336  
  78811005.865        1046.193          38.000  
  18612225.555    97807899.601         382.495          46.000    18612222.142  
  76213938.933         298.023          42.000  
  20435249.076   107387967.045       -2939.829          43.000    20435247.372  
  83678920.140       -2290.687          44.000  
  21493214.507   112947587.646       -3502.643          45.000                  
                                                
  22352400.897   117462675.795        2641.752          37.000                  
                                                
  19211573.914   100957496.016       -2162.478          48.000    19211568.147  
  78668153.709       -1685.088          42.000  
  22001778.396   115620125.961        2761.334          44.000    22001775.360  
  90093594.242        2151.776          39.000  
  23796102.128                       -2382.810          27.000                  
                                                
  23704829.458                        2600.970          30.000    23704830.493  
  97067300.641        2026.065          32.000  
                                                                  23630545.098  
              3      -2776.693          21.000  
 21  4 24 15 12 15.9940000  0 11G 4G 7G 8G 9G16G21G27G30G18G14G26
  21914793.883   115163000.462       -4084.125          41.000    21914788.776  
  89737406.008       -3182.416          42.000  
  19246201.315   101139473.561        1343.425          45.000    19246193.889  
  78809959.508        1046.609          38.000  
  18612152.757    97807517.050         382.818          46.000    18612149.389  
  76213640.833         298.476          42.000  
  20435808.466   107390906.668       -2939.319          43.000    20435806.817  
  83681210.757       -2290.366          44.000  
  21493880.959   112951089.807       -3501.644          45.000                  
                                                
  22351897.993   117460033.375        2642.985          37.000                  
                                                
  19211985.422   100959658.385       -2162.072          48.000    19211979.793  
  78669838.672       -1684.651          42.000  
  22001252.855   115617364.134        2762.695          44.000    22001249.809  
  90091442.163        2152.625          38.000  
  23796551.548                       -2381.534          27.000                  
                                                
  23704334.439                        2601.674          30.000    23704335.337  
  97065273.940        2027.380          32.000  
                                                                  23631223.618  
              3      -2780.730          21.000  
 21  4 24 15 12 16.9940000  0 11G 4G 7G 8G 9G16G21G27G30G18G14G26
  21915570.891   115167083.807       -4083.118          40.000    21915565.784  
  89740587.824       -3181.506          42.000  
  19245945.647   101138129.802        1344.080          45.000    19245938.308  
  78808912.411        1047.338          38.000  
  18612079.721    97807133.837         383.348          46.000    18612076.371  
  76213342.245         298.359          42.000  
  20436367.682   107393845.459       -2938.712          43.000    20436366.111  
  83683500.719       -2289.912          44.000  
  21494547.138   112954590.766       -3500.595          45.000                  
                                                
  22351394.990   117457389.749        2643.959          37.000                  
                                                
  19212396.861   100961820.057       -2161.462          48.000    19212391.288  
  78671523.095       -1684.316          42.000  
  22000727.033   115614601.142        2763.336          44.000    22000724.036  
  90089289.197        2152.954          39.000  
  23797005.531                       -2381.119          28.000                  
                                                
  23703839.347                        2602.699          30.000    23703839.858  
  97063246.294        2028.154          32.000  
                                                                  23631901.563  
              3      -2761.212          21.000  
 21  4 24 15 12 17.9940000  0 11G 4G 7G 8G 9G16G21G27G30G18G14G26
  21916347.729   115171165.960       -4081.573          40.000    21916342.753  
  89743768.731       -3180.646          42.000  
  19245689.784   101136785.080        1345.195          45.000    19245682.369  
  78807864.579        1048.304          38.000  
  18612006.774    97806749.960         384.021          47.000    18612003.256  
  76213043.101         299.496          41.000  
  20436926.733   107396783.376       -2937.469          43.000    20436925.189  
  83685790.008       -2289.042          44.000  
  21495213.189   112958090.467       -3499.249          45.000                  
                                                
  22350891.671   117454744.888        2645.302          38.000                  
                                                
  19212807.950   100963981.008       -2160.691          48.000    19212802.591  
  78673206.962       -1683.737          42.000  
  22000200.978   115611836.915        2764.691          44.000    22000197.985  
  90087135.239        2154.242          38.000  
  23797457.329                       -2380.595          27.000                  
                                                
  23703343.978                        2603.554          31.000    23703344.162  
                      2028.072          31.000  
                                                                  23632578.592  
              3      -2772.595          21.000  
 21  4 24 15 12 18.9940000  0 11G 4G 7G 8G 9G16G21G27G30G18G14G26
  21917124.347   115175247.189       -4081.115          40.000    21917119.384  
  89746948.901       -3180.042          42.000  
  19245433.800   101135439.630        1345.646          45.000    19245426.250  
  78806816.200        1048.337          38.000  
  18611933.554    97806365.655         384.300          47.000    18611930.131  
  76212743.655         299.486          42.000  
  20437485.716   107399720.674       -2937.180          43.000    20437484.283  
  83688078.817       -2288.730          44.000  
  21495879.067   112961589.187       -3498.534          45.000                  
                                                
  22350388.150   117452099.010        2646.168          38.000                  
                                                
  19213219.089   100966141.458       -2160.359          48.000    19213213.725  
  78674890.416       -1683.450          42.000  
  21999674.854   115609071.715        2765.417          44.000    21999671.701  
  90084980.543        2154.767          38.000  
  23797910.224                       -2380.201          27.000                  
                                                
  23702848.349                        2604.535          30.000    23702848.232  
                      2030.530          31.000  
                                                                  23633254.816  
              3      -2766.135          23.000  
 21  4 24 15 12 19.9940000  0 11G 4G 7G 8G 9G16G21G27G30G18G14G26
  21917900.776   115179327.998       -4080.432          40.000    21917895.980  
  89750128.771       -3179.755          42.000  
  19245177.709   101134094.007        1345.729          45.000    19245170.053  
  78805767.643        1048.763          38.000  
  18611860.471    97805981.468         384.057          47.000    18611857.089  
  76212444.287         299.280          42.000  
  20438044.707   107402657.913       -2937.438          43.000    20438043.244  
  83690367.557       -2288.812          44.000  
  21496544.727   112965087.449       -3498.145          45.000                  
                                                
  22349884.591   117449452.666        2646.814          38.000                  
                                                
  19213630.201   100968301.981       -2160.664          48.000    19213624.856  
  78676573.936       -1683.499          42.000  
  21999148.669   115606306.063        2765.900          44.000    21999145.409  
  90082825.497        2155.121          38.000  
  23798363.421                       -2380.418          26.000                  
                                                
  23702352.683                        2604.829          30.000    23702352.332  
                      2030.455          31.000  
                                                                  23633931.619  
              3      -2771.035          23.000  
 21  4 24 15 12 20.9940000  0 11G 4G 7G 8G 9G16G21G27G30G18G14G26
  21918677.226   115183408.123       -4079.358          40.000    21918672.345  
  89753308.094       -3179.193          42.000  
  19244921.584   101132747.919        1346.516          45.000    19244913.954  
  78804718.744        1049.129          38.000  
  18611787.350    97805597.081         384.587          47.000    18611783.935  
  76212144.785         299.455          42.000  
  20438603.508   107405594.753       -2936.437          44.000    20438601.994  
  83692656.004       -2288.293          44.000  
  21497210.239   112968584.947       -3497.126          45.000                  
                                                
  22349380.832   117446805.589        2647.523          38.000                  
                                                
  19214041.191   100970462.244       -2159.962          48.000    19214035.945  
  78678257.263       -1683.156          42.000  
  21998622.234   115603539.688        2766.907          44.000    21998618.969  
  90080669.876        2155.902          38.000  
  23798818.810                       -2379.514          26.000                  
                                                
  23701856.737                        2606.006          30.000    23701856.178  
                      2030.670          31.000  
                                                                  23634608.975  
              3      -2777.090          22.000  
 21  4 24 15 12 21.9940000  0 11G 4G 7G 8G 9G16G21G27G30G18G14G26
  21919453.504   115187487.350       -4079.108          41.000    21919448.543  
  89756486.691       -3178.467          41.000  
  19244665.250   101131401.131        1346.929          45.000    19244657.600  
  78803669.307        1049.468          38.000  
  18611714.075    97805212.314         384.697          47.000    18611710.747  
  76211844.942         299.803          42.000  
  20439162.334   107408530.987       -2936.099          44.000    20439160.789  
  83694943.983       -2287.998          44.000  
  21497875.609   112972081.458       -3496.165          45.000                  
                                                
  22348877.015   117444157.507        2648.349          38.000                  
                                                
  19214452.251   100972622.066       -2159.847          48.000    19214446.929  
  78679940.239       -1683.013          42.000  
  21998095.617   115600772.367        2767.554          44.000    21998092.355  
  90078513.526        2156.433          38.000  
  23799272.045                       -2379.311          27.000                  
                                                
  23701360.684                        2607.577          30.000    23701359.908  
                      2030.741          31.000  
                                                                  23635285.089  
              3      -2767.554          22.000  
 21  4 24 15 12 22.9940000  0 11G 4G 7G 8G 9G16G21G27G30G18G14G26
  21920229.628   115191566.240       -4078.589          41.000    21920224.769  
  89759665.046       -3178.320          41.000  
  19244408.888   101130054.248        1346.833          45.000    19244401.331  
  78802619.791        1049.465          38.000  
  18611640.942    97804827.717         384.601          47.000    18611637.635  
  76211545.260         299.465          42.000  
  20439721.113   107411467.254       -2936.292          44.000    20439719.594  
  83697231.983       -2288.133          44.000  
  21498540.824   112975577.617       -3495.897          45.000                  
                                                
  22348372.921   117441509.038        2649.052          37.000                  
                                                
  19214863.329   100974782.020       -2159.927          48.000    19214858.077  
  78681623.324       -1682.951          42.000  
  21997568.905   115598004.688        2767.889          44.000    21997565.641  
  90076356.902        2156.873          39.000  
  23799726.060                       -2379.623          27.000                  
                                                
  23700864.570                        2607.789          29.000    23700863.788  
                      2031.890          31.000  
                                                                  23635963.236  
              3      -2762.713          22.000  
 21  4 24 15 12 23.9940000  0 11G 4G 7G 8G 9G16G21G27G30G18G14G26
  21921005.729   115195644.747       -4078.015          41.000    21921000.878  
  89762843.091       -3177.393          41.000  
  19244152.525   101128707.192        1347.385          45.000    19244145.034  
  78801570.129        1049.815          38.000  
  18611567.776    97804443.241         384.504          47.000    18611564.538  
  76211245.677         299.562          42.000  
  20440279.863   107414403.428       -2935.935          44.000    20440278.448  
  83699519.898       -2287.850          44.000  
  21499206.051   112979073.314       -3495.328          45.000                  
                                                
  22347868.800   117438860.142        2649.290          38.000                  
                                                
  19215274.342   100976942.022       -2159.856          48.000    19215269.139  
  78683306.441       -1682.968          42.000  
  21997042.188   115595236.573        2768.390          44.000    21997038.891  
  90074199.924        2157.080          39.000  
  23800181.136                       -2378.846          27.000                  
                                                
  23700368.690                        2608.448          31.000    23700367.546  
  97049033.550        2031.805          31.000  
                                                                  23636639.584  
              3      -2763.425          23.000  
 21  4 24 15 12 24.9940000  0 11G 4G 7G 8G 9G16G21G27G30G18G14G26
  21921781.715   115199722.976       -4077.984          41.000    21921776.972  
  89766020.949       -3177.747          41.000  
  19243896.116   101127360.096        1347.104          44.000    19243888.726  
  78800520.447        1049.715          38.000  
  18611494.713    97804059.010         384.088          47.000    18611491.429  
  76210946.271         299.341          42.000  
  20440838.552   107417339.652       -2936.270          44.000    20440837.153  
  83701807.875       -2288.156          44.000  
  21499871.236   112982568.697       -3495.269          45.000                  
                                                
  22347364.578   117436210.906        2649.338          38.000                  
                                                
  19215685.416   100979102.231       -2160.207          48.000    19215680.171  
  78684989.719       -1683.250          42.000  
  21996515.228   115592468.150        2768.597          45.000    21996512.151  
  90072042.705        2157.373          39.000  
  23800633.694                       -2379.454          26.000                  
                                                
  23699872.524                        2608.316          30.000    23699871.171  
                      2032.678          31.000  
                                                                  23637314.625  
              3      -2761.753          23.000  
 21  4 24 15 12 25.9940000  0 11G 4G 7G 8G 9G16G21G27G30G18G14G26
  21922557.729   115203801.180       -4078.204          41.000    21922553.037  
  89769198.777       -3177.905          41.000  
  19243639.701   101126013.203        1346.653          44.000    19243632.462  
  78799470.903        1049.663          38.000  
  18611421.834    97803675.270         383.317          47.000    18611418.408  
  76210647.259         298.662          42.000  
  20441397.251   107420276.177       -2936.764          43.000    20441395.961  
  83704096.069       -2288.441          44.000  
  21500536.388   112986063.977       -3495.307          45.000                  
                                                
  22346860.323   117433561.608        2648.897          37.000                  
                                                
  19216096.593   100981262.864       -2160.896          48.000    19216091.294  
  78686673.322       -1683.723          42.000  
  21995988.364   115589699.665        2768.396          44.000    21995985.430  
  90069885.463        2157.037          39.000  
  23801085.163                       -2379.151          26.000                  
                                                
  23699376.461                        2607.878          31.000    23699374.732  
                      2032.382          30.000  
                                                                  23637989.435  
              3      -2768.059          24.000  
 21  4 24 15 12 26.9940000  0 11G 4G 7G 8G 9G16G21G27G30G18G14G26
  21923333.762   115207879.513       -4078.156          41.000    21923329.157  
  89772376.695       -3178.021          41.000  
  19243383.437   101124666.638        1346.553          44.000    19243376.079  
  78798421.644        1049.047          38.000  
  18611348.910    97803292.150         383.020          47.000    18611345.515  
  76210348.719         298.530          42.000  
  20441956.083   107423213.115       -2936.957          43.000    20441954.834  
  83706384.595       -2288.534          44.000  
  21501201.483   112989559.316       -3495.101          44.000                  
                                                
  22346356.127   117430912.346        2649.166          37.000                  
                                                
  19216507.845   100983424.060       -2161.169          48.000    19216502.565  
  78688357.375       -1684.045          42.000  
  21995461.611   115586931.257        2768.542          44.000    21995458.596  
  90067728.237        2157.489          39.000  
  23801537.788                       -2380.251          25.000                  
                                                
  23698880.286                        2607.959          31.000    23698878.298  
                      2032.269          30.000  
                                                                  23638664.642  
              3      -2764.011          25.000  
 21  4 24 15 12 27.9940000  0 11G 4G 7G 8G 9G16G21G27G30G18G14G26
  21924109.852   115211957.676       -4078.088          41.000    21924105.299  
  89775554.471       -3177.582          41.000  
  19243127.167   101123320.137        1346.431          44.000    19243119.818  
  78797372.412        1049.303          37.000  
  18611276.072    97802909.393         382.622          47.000    18611272.706  
  76210050.453         298.334          42.000  
  20442514.944   107426150.230       -2937.126          43.000    20442513.853  
  83708673.246       -2288.786          44.000  
  21501866.567   112993054.427       -3494.903          44.000                  
                                                
  22345851.849   117428262.840        2649.812          38.000                  
                                                
  19216919.158   100985585.553       -2161.712          48.000    19216913.815  
  78690041.648       -1684.445          42.000  
  21994934.789   115584162.657        2768.622          44.000    21994931.832  
  90065570.897        2157.501          39.000  
  23801988.438                       -2380.558          25.000                  
                                                
  23698383.952                        2608.390          31.000    23698381.826  
                      2032.216          30.000  
                                                                  23639341.167  
              3      -2766.229          25.000  
 21  4 24 15 12 28.9940000  0 11G 4G 7G 8G 9G16G21G27G30G18G14G26
  21924885.747   115216035.432       -4077.307          41.000    21924881.225  
  89778731.945       -3177.045          41.000  
  19242870.909   101121973.467        1346.929          44.000    19242863.663  
  78796323.053        1049.459          37.000  
  18611203.326    97802526.765         382.659          47.000    18611199.912  
  76209752.312         298.280          42.000  
  20443073.845   107429087.270       -2936.953          43.000    20443072.688  
  83710961.846       -2288.425          44.000  
  21502531.524   112996549.097       -3494.299          44.000                  
                                                
  22345347.562   117425612.909        2650.365          38.000                  
                                                
  19217330.591   100987747.111       -2161.402          48.000    19217325.138  
  78691725.976       -1684.263          41.000  
  21994407.822   115581393.626        2769.440          44.000    21994404.880  
  90063413.198        2158.063          39.000  
  23802438.172                       -2379.978          24.000                  
                                                
  23697887.462   124533246.219        2609.091          31.000    23697885.296  
                      2032.284          30.000  
                                                                  23640017.396  
              3      -2764.521          25.000  
 21  4 24 15 12 29.9940000  0 11G 4G 7G 8G 9G16G21G27G30G18G14G26
  21925661.511   115220112.306       -4076.300          40.000    21925657.042  
  89781908.740       -3176.221          41.000  
  19242614.567   101120626.121        1347.607          44.000    19242607.238  
  78795273.171        1050.140          37.000  
  18611130.451    97802143.729         383.184          47.000    18611127.006  
  76209453.844         298.670          42.000  
  20443632.800   107432023.740       -2936.411          43.000    20443631.541  
  83713250.000       -2287.983          44.000  
  21503196.340   113000042.815       -3493.368          45.000                  
                                                
  22344843.122   117422962.021        2651.345          37.000                  
                                                
  19217741.778   100989908.215       -2160.877          49.000    19217736.399  
  78693409.960       -1683.943          41.000  
  21993880.629   115578623.645        2770.495          44.000    21993877.739  
  90061254.782        2158.765          39.000  
  23802890.213                3      -2378.383          23.000                  
                                                
  23697391.009                        2610.203          31.000    23697388.529  
                      2034.419          31.000  
                                                                  23640693.084  
              3      -2762.499          24.000  
 21  4 24 15 12 30.9940000  0 11G 4G 7G 8G 9G16G21G27G30G18G14G26
  21926436.979   115224188.016       -4075.171          40.000    21926432.509  
  89785084.621       -3175.055          41.000  
  19242357.929   101119277.836        1348.824          44.000    19242350.616  
  78794222.581        1050.882          37.000  
  18611057.453    97801760.049         383.996          47.000    18611053.853  
  76209154.875         299.299          42.000  
  20444191.497   107434959.345       -2935.278          43.000    20444190.235  
  83715537.502       -2287.402          44.000  
  21503860.866   113003535.301       -3491.986          45.000                  
                                                
  22344338.457   117420309.829        2653.428          38.000                  
                                                
  19218152.867   100992068.626       -2160.027          49.000    19218147.444  
  78695093.405       -1683.283          42.000  
  21993353.311   115575852.489        2771.979          44.000    21993350.496  
  90059095.441        2159.973          39.000  
  23803341.833                3      -2377.187          22.000                  
                                                
  23696894.318   124528025.535        2611.940          32.000    23696891.623  
                      2034.332          30.000  
                                                                  23641367.878  
              3      -2762.294          24.000  
 21  4 24 15 12 31.9940000  0 11G 4G 7G 8G 9G16G21G27G30G18G14G26
  21927212.362   115228262.840       -4074.817          40.000    21927207.960  
  89788259.802       -3175.037          41.000  
  19242101.277   101117928.907        1348.740          44.000    19242093.954  
  78793171.472        1051.009          37.000  
  18610984.279    97801376.017         383.984          47.000    18610980.801  
  76208855.628         299.231          42.000  
  20444750.044   107437894.408       -2935.100          43.000    20444748.827  
  83717824.552       -2287.108          44.000  
  21504525.247   113007026.849       -3491.396          45.000                  
                                                
  22343833.657   117417656.803        2653.244          38.000                  
                                                
  19218563.877   100994228.609       -2160.043          48.000    19218558.549  
  78696776.514       -1683.369          42.000  
  21992825.744   115573080.425        2772.223          44.000    21992823.012  
  90056935.392        2160.175          38.000  
  23803792.462                3      -2375.520          22.000                  
                                                
  23696397.416                        2613.022          32.000    23696394.595  
                      2035.422          30.000  
                                                                  23642042.881  
              3      -2761.912          23.000  
 21  4 24 15 12 32.9940000  0 11G 4G 7G 8G 9G16G21G27G30G18G14G26
  21927987.645   115232337.149       -4073.969          40.000    21927983.266  
  89791434.597       -3174.542          41.000  
  19241844.527   101116579.666        1349.518          44.000    19241837.308  
  78792120.128        1051.323          37.000  
  18610911.154    97800991.976         384.074          47.000    18610907.806  
  76208556.367         299.161          42.000  
  20445308.514   107440829.265       -2934.769          43.000    20445307.282  
  83720111.460       -2286.967          44.000  
  21505189.531   113010517.823       -3490.589          45.000                  
                                                
  22343328.682   117415003.190        2653.687          38.000                  
                                                
  19218974.823   100996388.543       -2159.935          48.000    19218969.502  
  78698459.560       -1682.981          42.000  
  21992298.190   115570307.794        2772.900          44.000    21992295.356  
  90054774.913        2160.583          38.000  
  23804243.295                3      -2376.981          23.000                  
                                                
  23695900.523                        2612.762          32.000    23695897.409  
                      2035.696          30.000  
                                                                  23642717.177  
              3      -2762.681          24.000  
 21  4 24 15 12 33.9940000  0 11G 4G 7G 8G 9G16G21G27G30G18G14G26
  21928762.758   115236410.842       -4073.224          40.000    21928758.534  
  89794608.904       -3174.121          41.000  
  19241587.755   101115230.040        1349.812          44.000    19241580.473  
  78791068.465        1051.568          37.000  
  18610838.039    97800607.813         384.186          47.000    18610834.779  
  76208257.017         299.587          42.000  
  20445867.042   107443763.821       -2934.479          43.000    20445865.700  
  83722398.118       -2286.630          44.000  
  21505853.639   113014008.123       -3489.881          44.000                  
                                                
  22342823.827   117412348.834        2654.785          38.000                  
                                                
  19219385.722   100998548.285       -2159.528          48.000    19219380.475  
  78700142.480       -1682.819          42.000  
  21991770.468   115567534.489        2773.773          44.000    21991767.611  
  90052613.898        2161.078          38.000  
  23804695.694                3      -2383.384          24.000                  
                                                
  23695403.242                        2613.330          32.000    23695400.076  
                      2036.133          30.000  
                                                                  23643391.595  
              3      -2761.336          25.000  
 21  4 24 15 12 34.9940000  0 11G 4G 7G 8G 9G16G21G27G30G18G14G26
  21929537.794   115240483.603       -4072.162          40.000    21929533.563  
  89797782.458       -3173.212          41.000  
  19241330.683   101113879.695        1350.457          44.000    19241323.484  
  78790016.231        1052.095          37.000  
  18610764.940    97800223.217         384.852          47.000    18610761.600  
  76207957.346         299.656          42.000  
  20446425.378   107446697.749       -2933.824          43.000    20446423.996  
  83724684.286       -2286.008          44.000  
  21506517.612   113017497.412       -3488.888          44.000                  
                                                
  22342318.427   117409693.532        2655.549          37.000                  
                                                
  19219796.480   101000707.543       -2159.093          48.000    19219791.203  
  78701825.011       -1682.364          42.000  
  21991242.635   115564760.212        2774.500          44.000    21991239.690  
  90050452.140        2161.975          38.000  
  23805148.110                3      -2373.048          23.000                  
                                                
  23694905.635                        2614.960          32.000    23694902.403  
                      2037.532          30.000  
                                                                  23644066.613  
              3      -2759.593          25.000  
 21  4 24 15 12 35.9940000  0 11G 4G 7G 8G 9G16G21G27G30G18G14G26
  21930312.611   115244555.433       -4071.747          40.000    21930308.336  
  89800955.315       -3172.559          41.000  
  19241073.490   101112528.629        1351.202          44.000    19241066.325  
  78788963.470        1052.710          38.000  
  18610691.756    97799838.230         384.929          47.000    18610688.275  
  76207657.352         299.882          42.000  
  20446983.674   107449631.071       -2933.281          43.000    20446982.106  
  83726969.988       -2285.574          44.000  
  21507181.385   113020985.720       -3488.093          44.000                  
                                                
  22341812.869   117407037.233        2656.555          37.000                  
                                                
  19220207.304   101002866.337       -2158.911          49.000    19220202.010  
  78703507.202       -1682.400          42.000  
  21990714.583   115561984.984        2775.366          44.000    21990711.587  
  90048289.608        2162.860          38.000  
  23805602.027                3      -2384.227          21.000                  
                                                
  23694407.825                        2615.789          32.000    23694404.514  
                      2038.608          30.000  
                                                                  23644741.139  
              3      -2761.331          25.000  
 21  4 24 15 12 36.9940000  0 11G 4G 7G 8G 9G16G21G27G30G18G14G26
  21931087.313   115248626.788       -4070.880          40.000    21931083.132  
  89804127.824       -3172.748          41.000  
  19240816.346   101111177.378        1351.356          44.000    19240809.186  
  78787910.523        1053.060          38.000  
  18610618.578    97799453.327         384.759          47.000    18610615.001  
  76207357.417         300.014          42.000  
  20447541.832   107452564.295       -2933.268          43.000    20447540.304  
  83729255.616       -2285.871          44.000  
  21507844.969   113024473.543       -3487.695          44.000                  
                                                
  22341307.236   117404380.417        2657.011          37.000                  
                                                
  19220618.030   101005025.154       -2158.885          49.000    19220612.797  
  78705189.384       -1682.239          42.000  
  21990186.351   115559209.282        2775.720          44.000    21990183.351  
  90046126.729        2162.823          38.000  
  23806054.744                3      -2385.537          19.000                  
                                                
  23693910.117   124512342.467        2616.320          32.000    23693906.578  
                      2039.236          30.000  
                                                                  23645415.612  
              3      -2759.582          25.000  
 21  4 24 15 12 37.9940000  0 11G 4G 7G 8G 9G16G21G27G30G18G14G26
  21931861.945   115252697.893       -4070.844          40.000    21931857.787  
  89807300.097       -3171.930          41.000  
  19240559.215   101109826.043        1351.490          44.000    19240552.055  
  78786857.554        1052.593          38.000  
  18610545.419    97799068.653         384.614          47.000    18610541.850  
  76207057.676         299.694          42.000  
  20448100.062   107455497.523       -2933.205          43.000    20448098.464  
  83731541.253       -2285.676          44.000  
  21508508.537   113027961.018       -3487.103          44.000                  
                                                
  22340801.409   117401723.281        2657.358          37.000                  
                                                
  19221028.928   101007184.125       -2159.037          49.000    19221023.627  
  78706871.712       -1682.389          42.000  
  21989658.201   115556433.252        2776.233          44.000    21989655.149  
  90043963.589        2163.343          38.000  
  23806508.483                3      -2378.383          18.000                  
                                                
  23693411.981   124509726.277        2616.297          32.000    23693408.671  
                      2038.948          30.000  
                                                                  23646089.086  
              3      -2758.202          25.000  
 21  4 24 15 12 38.9940000  0 11G 4G 7G 8G 9G16G21G27G30G18G14G26
  21932636.402   115256768.622       -4070.508          40.000    21932632.435  
  89810472.098       -3172.028          41.000  
  19240302.088   101108474.568        1351.421          44.000    19240294.912  
  78785804.447        1053.101          38.000  
  18610472.303    97798684.124         384.343          47.000    18610468.726  
  76206758.067         299.104          42.000  
  20448658.295   107458430.711       -2933.152          43.000    20448656.518  
  83733826.854       -2285.660          44.000  
  21509172.136   113031448.064       -3487.057          44.000                  
                                                
  22340295.621   117399065.727        2657.154          37.000                  
                                                
  19221439.823   101009343.196       -2159.314          49.000    19221434.577  
  78708554.101       -1682.575          42.000  
  21989129.892   115553656.819        2776.544          44.000    21989126.758  
  90041800.128        2163.672          38.000  
  23806960.207                3      -2374.996          19.000                  
                                                
  23692913.953   124507109.607        2616.541          32.000    23692908.341  
              1       2040.481          30.000  
                                                                  23646760.437  
              3      -2731.958          23.000  
 21  4 24 15 12 39.9940000  0 11G 4G 7G 8G 9G16G21G27G30G18G14G26
  21933410.966   115260839.034       -4070.080          40.000    21933407.034  
  89813643.839       -3171.490          41.000  
  19240044.976   101107123.004        1351.691          44.000    19240037.598  
  78784751.280        1053.107          38.000  
  18610399.160    97798299.799         384.301          47.000    18610395.667  
  76206458.575         299.481          42.000  
  20449216.501   107461363.914       -2933.292          43.000    20449214.734  
  83736112.450       -2285.616          44.000  
  21509835.670   113034934.744       -3486.558          44.000                  
                                                
  22339789.646   117396407.796        2657.788          36.000                  
                                                
  19221850.665   101011502.401       -2159.350          48.000    19221845.406  
  78710236.600       -1682.507          42.000  
  21988601.554   115550880.048        2776.770          44.000    21988598.319  
  90039636.426        2163.666          38.000  
  23807408.026                3      -2373.038          21.000                  
                                                
  23692416.118   124504492.589        2617.176          33.000    23692405.071  
                      2039.418          30.000  
                                                                  23647433.493  
              3      -2757.264          23.000  
 21  4 24 15 12 40.9940000  0 11G 4G 7G 8G 9G16G21G27G30G18G14G26
  21934185.470   115264909.317       -4070.447          40.000    21934181.637  
  89816815.483       -3171.582          41.000  
  19239787.655   101105771.529        1351.430          44.000    19239780.399  
  78783698.183        1053.107          38.000  
  18610326.131    97797915.843         383.698          47.000    18610322.625  
  76206159.390         298.826          42.000  
  20449774.768   107464297.280       -2933.528          43.000    20449772.878  
  83738398.190       -2285.674          44.000  
  21510499.180   113038421.217       -3486.400          44.000                  
                                                
  22339283.771   117393749.649        2658.169          36.000                  
                                                
  19222261.560   101013661.909       -2159.750          48.000    19222256.339  
  78711919.335       -1682.723          42.000  
  21988073.117   115548103.082        2776.855          44.000    21988069.817  
  90037472.542        2163.879          38.000  
  23807858.709                3      -2369.985          23.000                  
                                                
  23691918.177   124501875.326        2617.532          33.000    23691908.322  
                      2039.174          30.000  
                                                                  23648107.342  
              3      -2762.559          22.000  
 21  4 24 15 12 41.9940000  0 11G 4G 7G 8G 9G16G21G27G30G18G14G26
  21934959.906   115268979.595       -4070.331          40.000    21934956.099  
  89819987.140       -3171.533          41.000  
  19239530.567   101104420.306        1351.041          44.000    19239523.276  
  78782645.266        1053.307          38.000  
  18610253.088    97797532.418         383.362          47.000    18610249.616  
  76205860.626         298.620          42.000  
  20450333.009   107467230.967       -2933.499          43.000    20450331.165  
  83740684.191       -2285.950          44.000  
  21511162.598   113041907.653       -3486.298          44.000                  
                                                
  22338777.978   117391091.450        2658.438          37.000                  
                                                
  19222672.603   101015821.894       -2160.187          48.000    19222667.363  
  78713602.447       -1683.310          42.000  
  21987544.667   115545326.116        2777.106          44.000    21987541.357  
  90035308.702        2163.623          38.000  
  23808309.081                3      -2377.687          25.000                  
                                                
  23691420.330   124499257.994        2617.651          33.000    23691410.617  
                      2039.576          30.000  
                                                                  23648781.091  
              3      -2748.999          23.000  
 21  4 24 15 12 42.9940000  0 11G 4G 7G 8G 9G16G21G27G30G18G14G26
  21935734.354   115273049.660       -4070.062          40.000    21935730.540  
  89823158.622       -3171.405          41.000  
  19239273.373   101103069.060        1351.157          44.000    19239266.152  
  78781592.382        1052.655          38.000  
  18610180.032    97797149.303         382.835          47.000    18610176.602  
  76205562.088         298.265          42.000  
  20450891.261   107470164.788       -2934.000          43.000    20450889.382  
  83742970.270       -2286.123          44.000  
  21511825.985   113045393.823       -3486.217          44.000                  
                                                
  22338272.027   117388433.002        2658.580          36.000                  
                                                
  19223083.648   101017982.134       -2160.532          48.000    19223078.393  
  78715285.743       -1683.494          42.000  
  21987016.243   115542548.892        2777.124          44.000    21987012.900  
  90033144.599        2164.197          38.000  
  23808762.284                3      -2377.583          25.000                  
                                                
  23690921.995   124496640.366        2617.591          33.000    23690913.928  
                      2039.506          30.000  
                                                                  23649455.226  
              3      -2752.952          24.000  
 21  4 24 15 12 43.9940000  0 11G 4G 7G 8G 9G16G21G27G30G18G14G26
  21936508.870   115277119.717       -4069.854          40.000    21936505.013  
  89826330.112       -3171.533          41.000  
  19239016.290   101101718.051        1350.856          44.000    19239009.027  
  78780539.634        1052.912          38.000  
  18610107.235    97796766.690         382.261          47.000    18610103.700  
  76205263.951         297.726          42.000  
  20451449.724   107473098.909       -2934.467          44.000    20451447.712  
  83745256.605       -2286.554          44.000  
  21512489.486   113048879.911       -3486.129          43.000                  
                                                
  22337766.183   117385774.494        2658.601          36.000                  
                                                
  19223494.709   101020142.799       -2160.947          48.000    19223489.508  
  78716969.383       -1683.763          42.000  
  21986487.777   115539771.617        2777.240          44.000    21986484.400  
  90030980.500        2164.117          38.000  
  23809215.497                3      -2378.182          25.000                  
                                                
  23690423.702   124494022.656        2617.562          32.000    23690413.351  
                      2040.500          30.000  
                                                                  23650128.951  
              3      -2753.623          24.000  
 21  4 24 15 12 44.9940000  0 11G 4G 7G 8G 9G16G21G27G30G18G14G26
  21937283.348   115281189.785       -4069.934          40.000    21937279.623  
  89829501.590       -3171.387          41.000  
  19238759.103   101100367.280        1350.480          44.000    19238752.004  
  78779487.074        1052.734          38.000  
  18610034.524    97796384.596         381.823          47.000    18610030.915  
  76204966.216         297.576          42.000  
  20452008.257   107476033.351       -2934.659          44.000    20452006.078  
  83747543.165       -2286.521          44.000  
  21513152.813   113052365.933       -3485.938          43.000                  
                                                
  22337260.244   117383115.953        2658.489          37.000                  
                                                
  19223905.964   101022303.937       -2161.337          48.000    19223900.838  
  78718653.394       -1684.366          42.000  
  21985959.351   115536994.316        2777.521          44.000    21985955.908  
  90028816.373        2164.111          38.000  
  23809670.214                3      -2378.617          26.000                  
                                                
  23689925.458   124491404.820        2617.881          32.000    23689914.421  
                      2040.115          31.000  
                                                                  23650804.124  
              3      -2760.327          25.000  
 21  4 24 15 12 45.9940000  0 11G 4G 7G 8G 9G16G21G27G30G18G14G26
  21938057.876   115285259.920       -4070.489          39.000    21938054.147  
  89832673.123       -3171.600          40.000  
  19238502.043   101099016.790        1350.364          44.000    19238495.051  
  78778434.768        1052.180          37.000  
  18609962.001    97796003.102         381.193          47.000    18609958.296  
  76204668.944         297.082          41.000  
  20452566.764   107478968.165       -2934.945          44.000    20452564.476  
  83749830.042       -2286.941          44.000  
  21513816.123   113055851.992       -3486.105          43.000                  
                                                
  22336754.280   117380457.350        2658.383          36.000                  
                                                
  19224317.344   101024465.594       -2161.762          48.000    19224312.186  
  78720337.807       -1684.642          42.000  
  21985430.763   115534217.061        2777.154          44.000    21985427.355  
  90026652.279        2164.136          38.000  
  23810126.433                3      -2378.727          26.000                  
                                                
  23689427.089   124488786.981        2618.071          32.000    23689416.416  
                      2040.419          31.000  
                                                                  23651477.724  
              3      -2758.953          25.000  
 21  4 24 15 12 46.9940000  0 11G 4G 7G 8G 9G16G21G27G30G18G14G26
  21938832.485   115289330.173       -4070.355          39.000    21938828.668  
  89835844.751       -3171.973          40.000  
  19238245.082   101097666.671        1349.800          44.000    19238238.168  
  78777382.712        1052.056          38.000  
  18609889.468    97795622.247         380.517          48.000    18609885.822  
  76204372.185         296.323          42.000  
  20453125.372   107481903.436       -2935.500          44.000    20453122.938  
  83752117.275       -2287.764          44.000  
  21514479.457   113059338.109       -3486.406          43.000                  
                                                
  22336248.441   117377798.813        2658.721          37.000                  
                                                
  19224728.839   101026627.846       -2162.757          48.000    19224723.703  
  78722022.668       -1685.319          42.000  
  21984902.213   115531439.876        2776.831          44.000    21984898.874  
  90024488.236        2163.574          37.000  
  23810580.383                3      -2377.348          25.000                  
                                                
  23688928.643   124486169.240        2617.330          32.000    23688918.398  
                      2040.225          31.000  
                                                                  23652151.845  
              3      -2756.925          25.000  
 21  4 24 15 12 47.9940000  0 11G 4G 7G 8G 9G16G21G27G30G18G26G14
  21939606.980   115293400.499       -4070.569          39.000    21939603.218  
  89839016.413       -3171.741          40.000  
  19237988.243   101096316.817        1349.541          44.000    19237981.327  
  78776330.859        1051.847          38.000  
  18609817.102    97795241.945         379.875          47.000    18609813.489  
  76204075.842         295.896          42.000  
  20453684.015   107484839.082       -2936.073          44.000    20453681.479  
  83754404.781       -2287.683          44.000  
  21515142.761   113062824.221       -3486.208          44.000                  
                                                
  22335742.657   117375140.361        2657.891          37.000                  
                                                
  19225140.369   101028790.589       -2163.153          48.000    19225135.261  
  78723707.916       -1685.452          42.000  
  21984373.826   115528662.727        2776.935          44.000    21984370.393  
  90022324.239        2163.647          37.000  
  23811032.435                3      -2382.514          23.000                  
                                                
  23652793.282                3      -3539.390          18.000    23652825.650  
              3      -2757.679          25.000  
  23688430.032   124483551.437        2617.205          32.000    23688420.436  
  97000141.429        2039.874          32.000  
 21  4 24 15 12 48.9940000  0 11G 4G 7G 8G 9G16G21G27G30G18G26G14
  21940381.484   115297470.883       -4070.318          39.000    21940377.788  
  89842188.154       -3171.619          40.000  
  19237731.477   101094967.270        1349.592          44.000    19237724.575  
  78775279.293        1051.486          38.000  
  18609744.826    97794862.212         379.615          47.000    18609741.235  
  76203779.943         295.869          42.000  
  20454242.700   107487775.114       -2935.934          44.000    20454240.210  
  83756692.593       -2287.754          44.000  
  21515806.031   113066310.356       -3485.995          43.000                  
                                                
  22335236.636   117372481.883        2658.413          37.000                  
                                                
  19225552.058   101030953.869       -2163.414          48.000    19225546.884  
  78725393.582       -1685.676          42.000  
  21983845.361   115525885.615        2777.411          43.000    21983841.951  
  90020160.259        2163.745          37.000  
  23811486.164                3      -2380.020          23.000                  
                                                
  23653457.340                3      -3539.390          18.000    23653498.726  
              3      -2757.327          25.000  
  23687931.607   124480933.548        2618.564          32.000    23687922.416  
  96998101.579        2039.984          31.000  
 21  4 24 15 12 49.9940000  0 11G 4G 7G 8G 9G16G21G27G30G18G26G14
  21941156.044   115301541.270       -4070.318          39.000    21941152.213  
  89845359.888       -3171.613          40.000  
  19237474.761   101093617.959        1349.223          44.000    19237467.818  
  78774227.851        1051.849          38.000  
  18609672.684    97794483.029         378.948          47.000    18609669.122  
  76203484.478         295.156          42.000  
  20454801.488   107490711.486       -2936.510          44.000    20454798.950  
  83758980.677       -2288.241          44.000  
  21516469.338   113069796.448       -3486.137          43.000                  
                                                
  22334730.643   117369823.335        2658.492          37.000                  
                                                
  19225963.803   101033117.621       -2164.039          48.000    19225958.511  
  78727079.612       -1686.013          42.000  
  21983316.835   115523108.488        2777.332          43.000    21983313.307  
  90017996.267        2163.715          37.000  
  23811938.556                3      -2375.239          23.000                  
                                                
  23654139.607                3      -3539.390          18.000    23654172.265  
              3      -2758.788          24.000  
  23687433.121                        2617.710          33.000    23687424.330  
  96996061.618        2040.624          32.000  
 21  4 24 15 12 50.9940000  0 11G 4G 7G 8G 9G16G21G27G30G18G26G14
  21941930.534   115305611.787       -4070.892          39.000    21941926.879  
  89848531.739       -3172.058          40.000  
  19237218.071   101092269.004        1348.601          44.000    19237211.157  
  78773176.736        1050.962          37.000  
  18609600.689    97794104.485         378.031          48.000    18609597.017  
  76203189.505         294.559          41.000  
  20455360.280   107493648.299       -2937.393          44.000    20455357.901  
  83761269.102       -2288.645          43.000  
  21517132.734   113073282.603       -3486.368          43.000                  
                                                
  22334224.774   117367164.879        2658.051          38.000                  
                                                
  19226375.661   101035281.947       -2164.755          48.000    19226370.300  
  78728766.110       -1686.887          42.000  
  21982788.453   115520331.463        2776.825          43.000    21982784.780  
  90015832.350        2163.324          37.000  
  23812390.782                3      -2374.684          22.000                  
                                                
  23654816.396                3      -3539.390          19.000    23654845.423  
              3      -2755.871          25.000  
  23686934.788   124475697.821        2618.380          33.000    23686926.291  
                      2039.694          32.000  
 21  4 24 15 12 51.9940000  0 11G 4G 7G 8G 9G16G21G27G30G18G14G26
  21942705.093   115309682.554       -4070.959          39.000    21942701.541  
  89851703.772       -3172.491          40.000  
  19236961.524   101090920.532        1347.825          44.000    19236954.563  
  78772125.977        1050.368          38.000  
  18609528.911    97793726.693         377.202          48.000    18609525.172  
  76202895.126         293.777          42.000  
  20455919.353   107496585.689       -2938.110          44.000    20455916.826  
  83763557.971       -2289.402          43.000  
  21517796.144   113076768.948       -3486.604          43.000                  
                                                
  22333718.930   117364506.657        2657.561          38.000                  
                                                
  19226787.621   101037446.988       -2165.583          48.000    19226782.217  
  78730453.152       -1687.593          42.000  
  21982260.061   115517554.652        2776.447          43.000    21982256.333  
  90013668.574        2163.599          37.000  
  23812846.789                3      -2387.721          22.000                  
                                                
  23686436.463   124473080.124        2618.142          33.000    23686428.322  
  96991982.030        2039.384          32.000  
                                                                  23655518.929  
              3      -2757.486          24.000  
 21  4 24 15 12 52.9940000  0 11G 4G 7G 8G 9G16G21G27G30G18G14G26
  21943479.831   115313753.926       -4071.478          39.000    21943476.279  
  89854876.274       -3172.913          40.000  
  19236705.105   101089572.875        1347.378          45.000    19236698.150  
  78771075.868        1049.863          38.000  
  18609457.305    97793350.025         376.227          48.000    18609453.555  
  76202601.615         293.275          42.000  
  20456478.440   107499523.961       -2938.509          44.000    20456475.898  
  83765847.546       -2289.875          43.000  
  21518459.622   113080255.844       -3487.039          43.000                  
                                                
  22333213.130   117361848.921        2657.649          38.000                  
                                                
  19227199.808   101039613.063       -2166.537          48.000    19227194.376  
